상호명,업종중분류명,업종소분류명,표준산업분류명,행정동명,위도,경도,합친데이터,네이버키워드,naver_store_url,store_address,store_score,visitor_review,total_of_people_voted,리뷰 총인원
카페65도씨,커피점/카페,커피전문점/카페/다방,비알콜 음료점업,범박동,37.4698682060989,126.812188615467,커피점/카페커피전문점/카페/다방비알콜 음료점업,범박동%20카페65도씨,https://m.place.naver.com/restaurant/37459407,경기 부천시 양지남로 39,4.31,/분위기좋고 대화하기 좋아요/매장은 넓어 보여 분위기 좋을것같아 방문 청결상태 별로ㅠㅠ 직원분인지 사장님인지 모르겠으나 좀 무뚝뚝했다 매장에서 먹고가는데 일회용 컵에 커피 나온거에 좀더 실망스러웠다/굿굿/조용히 얘기하기 좋아요/맛있어요/좋아요./좋아요/직원분도 친절하시고 커피가 맛있어요 !!/아포카토 맛나요/굿,/4.31/286개 평점 252명 참여,101
블럭앤카페,커피점/카페,커피전문점/카페/다방,비알콜 음료점업,범박동,37.4727226460909,126.807530900738,커피점/카페커피전문점/카페/다방비알콜 음료점업,범박동%20블럭앤카페,https://m.place.naver.com/restaurant/1262904745,경기 부천시 범안로96번길 23 4단지상가 3층,,/좋아요/가까워서 아이의 놀이터^^/사장님 좋으세요~/신나는슬라임 비즈랑 블럭놀이 신나요/행사할때 정액권한번씩 끊어놔요,,5
한우세계,한식,갈비/삼겹살,한식 음식점업,범박동,37.4701589658587,126.80795599548,한식갈비/삼겹살한식 음식점업,범박동%20한우세계,https://m.place.naver.com/restaurant/31629816,경기 부천시 범안로 130-21,,/좋아요/좋아요/좋아요/국/고기가 맛있어요/좋아요/굿/굿/좋아요,,72
마론,커피점/카페,커피전문점/카페/다방,비알콜 음료점업,범박동,37.4733626376413,126.812924687767,커피점/카페커피전문점/카페/다방비알콜 음료점업,범박동%20마론,https://m.place.naver.com/restaurant/37435543,경기 부천시 양지로 115 1층 카페마론,4.4,"/가격도 저렴하고 빵 맛있어요. 케익생크림도 안느끼하고 안달고 맛나고, 시나몬롤도 따뜻하게데워주셨는데 달달하니 커피랑 찰떡이네요. 다만 어르신 들조금 많아서 시끄러워요. 뒤에 교회때문인지/에그타르트 너무 맛있어요♡ 다른 디저트들도 먹고 싶었지만 너무 늦게가서 맛 볼 수 없어서 아쉬웠어요./라스트오더가 9시까지라해서 왔는데 매장이 9시까지였...급하게 먹고 가지만 멀리서 온 보람이 있을 정도로 맛있네요 우리애기도 너무 잘 먹고😍 시간 되면 또 들르고 싶네요! 담번엔 여유있게 와서 디테일하게 보고 가는거로😁 포장도 잘해주셔서 감사합니다!/크림치즈 베이글 , 버터 프레첼 최애에요 맛있어요/스콘 맛있어요 커피는 좀별루/시원~하이 달달~하이 너무좋습니다^~^!!!/빵이 맛있어요. 소보루페스트리~~특이하고 맛있네요/포장해서 집에서 먹었어요~ 딸기가 엄청 들어가 있어요 ㅎㅎㅎㅎ/커피도 맛있고 분위기도 좋고 편안해요/소보로와 따뜻한 커피 어울려요~~","/4.4/2,040개 평점 1,438명 참여",847
부어치킨,닭/오리요리,후라이드/양념치킨,치킨 전문점,범박동,37.4688264242315,126.806270153294,닭/오리요리후라이드/양념치킨치킨 전문점,범박동%20부어치킨,https://m.place.naver.com/restaurant/1654229456,경기 부천시 범안로219번길 19,4.69,"/제로웨이스트 실천해서 통을 가지고 가는데 감사하게도 흔쾌히 괜찮다고 해주셔서 전화로 주문하고 통가져간다고 하면 해주시더라구요. ^^ 치킨도 맛있지만 고구마튀김 감자튀김도 맛나요. 가게 사장님 사모님이 항상 친절하게 맞아주셔서 갈때마다 기분이 좋아집니다. ^^/용기 가져가서 받아 왔는데 흔쾌히 괜찮다고 해주셔서 감사해요. 다음에 주문할때 용기가져간다 말씀드리고 가기로 했습니다. 항상 친절하시고 서비스 도 잘해주시는거 같아요. 치킨을 사러가는데 기분이 좋아져서 돌아옵니다. 테이크아웃 할인도 되고 좋아요. 치킨 바삭하니 맛있었고 감자튀김도 👍/요기 치킨 맛있는데유? 매장작은데도 손님 바글바글 치맥하기 좋아요!!/치킨 포장해서 집에 와서 먹었어요. 할인도 되고 콜라랑 치킨무도 주셔서 좋아요! 바삭하고 따뜻하게 바로 먹으니 넘 맛있어요! 사장님이 친절하시고 좋아요 😄/항상 친절하고 항상 맛있어요. ^^/부어치킨이야 원래 유명한 브랜드지만, 여기는 정말 맛있습니다. 튀김옷이 정말 바삭한데 속은 반대로 촉촉하고 부드러워 말 그대로 겉바속촉입니다. 닭 염지도 잘 되어 있고 뼈 상태를 보면 늘 신선닭을 쓰는 것을 알 수 있습니다. 무엇보다 늘 친절하게 맞아주시는 사장님 내외에 매장 방문할 때마다 감동하게 됩니다. 맛과 친절을 동시에 갖춘 옥길점에 꼭 와보세요.^^/언제나 사장님 친절하고 메뉴도 맛있어요/갈때마다 기분 좋은 곳이예요. ^^/오랜만에 치맥했다. 사장님도 친절하시고, 맛쇼킹 치킨 맛이 대박, 너무 맛있어서 금방 먹어치웠다. 사장님 사업 대박나세요.^^/원래 크리스피 맛나는데 오늘은 순살이라 그런가 좀 퍽퍽했어요",/4.69/121개 평점 92명 참여,80
정담은보쌈,한식,족발/보쌈전문,한식 음식점업,범박동,37.4696242815002,126.812124646697,한식족발/보쌈전문한식 음식점업,범박동%20정담은보쌈,https://m.place.naver.com/restaurant/37453109,경기 부천시 양지남로 41,4.45,/모두 다 너무 맛있어요! 저 보쌈김치나 무말랭이 안 좋아하는데 여기 너무 맛있었어요 ㅎㅎ 보쌈 먹고 싶었는데 맛 없는게 없어서 너무 맛있게 잘 먹었 습니다 👍 완전 먹고 싶은거 상상하다가 딱 먹었는데 그 맛이 안나거나 맛이 부족하면 너무 아쉽잖아요ㅠㅠ 오늘 그게 아니라 대만족이었어요 오히려 먹고 싶어하길 잘했다하는 생각 ㅎㅎㅎ 보쌈 먹고 싶을때가면 후회 안할 것 같아요 ㅎㅎ 다음에 또 먹을거에요!!/점심특선으로 국수정식 저렴하게 먹고왔어요 국수엔 견과류도 많이 들고 보쌈 하고 같이 나오는 무말랭이와 김치도 맛있었습니다/포장해서 먹었는데 맛있게 먹었어요 김치 보쌈 정갈하게 담아주시고 맛도 좋아요! 서비스로 주신 콜라 잘 먹었습니다/언제 먹어도 맛있는 보쌈집입니다^^/고기도 촉촉하고 보쌈김치도 넘 맛있네요 ㅎㅎ/사장님 입담도 좋으시고 친절해요/굿/깔끔하고 맛있어요./강추/굴보쌈 지금 먹어야함 !!!,/4.45/138개 평점 130명 참여,73
아구세상,일식/수산물,아구전문,한식 음식점업,범박동,37.4701766706146,126.812398526659,일식/수산물아구전문한식 음식점업,범박동%20아구세상,https://m.place.naver.com/restaurant/35726775,경기 부천시 양지남로 33-1,4.35,"/사장님이 추천한 대로 4명이 대구탕 소자, 아구찜 중자 주문했더니 남지 않을 정도로 충분히 먹을 수 있었어요. 탕과 찜의 조화는 정말 환상이었습니다. 적당히 매콤한 찜을 먹고 부드러운 탕을 곁들이니 여기 오길 잘했다는 생각만 들었어요./해물탕 국물이 시원한데 해물은 좀 빈약해요/해물찜 대 시켜서 가족4명에서 잘먹었어요 기본맛이 딱 맵지도 않고 적당하게 맛나영/아구찜이 너무 달아서, 목끝에서 달달함이 없어지질 않네요... 그래서 라면끓이고 있는중입니다./매콤하게 요청드렸는데 진짜 딱 맛있게 매콤!!맛있어요!!!/맛나용/너무 맛있게 잘 먹었어요^^ 사이드메뉴가 없는게 아쉬워요ㅜ 해물파전이나 낙지수제비 같은? 추가로 더 먹고싶은데 없어서 애매했어요/이 집 모든 메뉴가 맛있어요!/비오는날 뜨끈한 알탕좋아요/굿",/4.35/206개 평점 192명 참여,105
고봉민김밥인부천옥길점,분식,라면김밥분식,분식 및 김밥 전문점,범박동,37.4675351175665,126.822150862624,분식라면김밥분식분식 및 김밥 전문점,범박동%20고봉민김밥인부천옥길점,https://m.place.naver.com/restaurant/900646304,경기 부천시 옥길로 117,4.3,/참치김밥 야채김밥 맛있어요/매콤어묵김밥 맛있어요~~/새우김밥 맛있어요./고봉민의 쫄면은 상징적인건데. 심하게 불어터진데다 짜고.ㅠ 다신 안가고싶습니다.ㅠㅠ 최악.ㅠ/김밥이 맛있어서 좋네요./굿/굿/맛있는 점심/김밥 맛있어요~/넘조아요 맛있어요,/4.3/650개 평점 527명 참여,274
계림원,닭/오리요리,후라이드/양념치킨,치킨 전문점,범박동,37.4689622435877,126.820692773489,닭/오리요리후라이드/양념치킨치킨 전문점,범박동%20계림원,https://m.place.naver.com/restaurant/38591132,경기 부천시 양지로176번길 8-12 1층 계림원,4.47,/불닭보다는 역시 기본이네요 ㅜㅜ/누릉지통닭과 삼계탕 맛있어요/친절하고 음식이 한결같이 맛있습니다./잘먹었습니당/굿/좋아요/좋아요/좋아요/굿/👍,/4.47/233개 평점 225명 참여,98
전주콩나물국밥,한식,한식/백반/한정식,한식 음식점업,범박동,37.4693275514864,126.820280063275,한식한식/백반/한정식한식 음식점업,범박동%20전주콩나물국밥,https://m.place.naver.com/restaurant/41781108,경기 부천시 양지로166번길 3,4.4,/뜨끈한 콩나물국밥 좋아요/콩나물 맛집이었는데 콩나물비리내가 나네요/가성비 좋아요./자주가요 가격도 저렴하고 가볍게 먹기 좋아요/가격이 조금 올라서 아쉽다 매장에서 뚝배기로 먹는게 맛잇다 포장은 별로인듯/오랫만에 가도 맛있었어요/일요일 오전에 웨이팅 할 줄 몰랐네요. 맛도 가격도 좋은 콩나물국밥 최고~/김치콩나물 국밥 시원해요/황태콩나물해장국과 김치콩나물해장국 시원하니 맛나요/이른 아침밥 먹으러 가기 좋아요 콩나물 국밥에 고추 다대기 많이 넣어서 먹으면 꿀맛,"/4.4/1,383개 평점 1,003명 참여",705
헨젤,커피점/카페,커피전문점/카페/다방,비알콜 음료점업,범박동,37.4702003869115,126.81926021095,커피점/카페커피전문점/카페/다방비알콜 음료점업,범박동%20헨젤,https://m.place.naver.com/restaurant/782831457,경기 부천시 양지로152번길 3 1층 henjell,,/아이가 좋아했어요 ^^ 감사합니다,,1
예당어죽닭발,별식/퓨전요리,죽전문점,한식 음식점업,범박동,37.4703677906749,126.812587686038,별식/퓨전요리죽전문점한식 음식점업,범박동%20예당어죽닭발,https://m.place.naver.com/restaurant/37187175,경기 부천시 양지남로 31 1층 예당어죽닭발,,/김치맛집이에요. 어죽 잘하는 집이에요./강 추천^^/맛있어요~/ㅇㅇ/좋아요/음식 맛있어요/좋아요/맛있어요/굿/양도 많고 얼큰하면서 좋아요 김치도 맛있어요,,160
공간,커피점/카페,커피전문점/카페/다방,비알콜 음료점업,범박동,37.4696804330729,126.818624016269,커피점/카페커피전문점/카페/다방비알콜 음료점업,범박동%20공간,https://m.place.naver.com/restaurant/1330739200,경기 부천시 범안로 117 현대리치모아 506호,4.41,/굿/깨끗해요/좋아요/ㄹ/굿!/조용하고 분위기 좋아요/선생님 친절하시고 관리 잘되어 만족해요/좋아요/좋아요/좋아요^^,/4.41/43개 평점 23명 참여,11
BHC치킨,닭/오리요리,후라이드/양념치킨,치킨 전문점,범박동,37.4677529115346,126.82230570854,닭/오리요리후라이드/양념치킨치킨 전문점,범박동%20BHC치킨,https://m.place.naver.com/restaurant/1416221622,경기 부천시 양지로67번길 34,4.46,/너무 맛있어요^^양도많고 신선해여 감사합니다/늘 핫뿌링클~~매우면서 땡기는맛~~ 시즈닝이 넉넉히 많아 넘 좋아여~^^/매장도 청결하고 맛도 😀/후라이드치킨 너무 맛있어요 치즈볼도 맛있어요^^/맛초킹 맛있어요/굿/좋아요/좋아요/자주 갑니다./굿,/4.46/26개 평점 35명 참여,37
쥬시,커피점/카페,커피전문점/카페/다방,비알콜 음료점업,범박동,37.4675351175665,126.822150862624,커피점/카페커피전문점/카페/다방비알콜 음료점업,범박동%20쥬시,https://m.place.naver.com/restaurant/1185246997,경기 부천시 양지로184번길 29 116호,,/가성비 좋아요/점장님이 너무너무 친절하시구! 너무 맛있습니다! 가성비에 행복함까지 더 가져갔네요! 감사합니다!!/양 짱 많이 주시고 친절 번창하세요/맛있어요~!!과일이 너무 싱싱해요!^^/미숫가루 맛있네요/시원하고 아주 좋아요~!!/저렴하니 가성비 좋아요/음료가 너무 맛있고 친절하십니다 🙂,,39
본죽,별식/퓨전요리,죽전문점,한식 음식점업,범박동,37.467753024189,126.822317011287,별식/퓨전요리죽전문점한식 음식점업,범박동%20본죽,https://m.place.naver.com/restaurant/1256987099,경기 부천시 범안로 118 신한은행365) 영플러스 101호,4.38,/체해서 아들램이 제대로 못먹었는데..낚지김치죽먹고 소고기야채죽도 먹고 잘먹으니 기특하네요^^ 역시 죽은 본죽입니다^^/죽 좋아해서 자주 가요/아플때 사먹는곳/가까워서 방문해요/맛있게 먹었어요/포장 해 와서 자주 먹고 있어요. 사장님도 친절하시고 모든 메뉴 다 맛있습니다. 강추해요/맛있습니다./사장님이 엄청 친절하세요/굿/좋아요,/4.38/195개 평점 187명 참여,101
영양사가차려주는밥상,한식,한식/백반/한정식,한식 음식점업,범박동,37.4684562851609,126.821458131721,한식한식/백반/한정식한식 음식점업,범박동%20영양사가차려주는밥상,https://m.place.naver.com/restaurant/1802642578,경기 부천시 옥길로 116 문영퀸즈파크 A동 지하1층,4.31,/맛있어요/굿/Good/좋아요/음.. 종류가 생각했던것 만큼 다양하지 않음. 가성비는 글쎄요.. 맛도 그냥저냥.. 오삼불고기 인 듯 한데 냉동 오징어 사용.. 김x천x국 가서 사먹는게 나을 듯../굳/좋아요/푸짐해서 많이 먹거되네요 맛있고 깨끗해요 매뉴 고민스러울땐 아무생각없이 여기오면 딱이네요/😁/이전해서 처음가봤는데 깨끗하고 맛났어요 재방문 의사있습니다 굿,/4.31/260개 평점 224명 참여,125
청년다방,커피점/카페,커피전문점/카페/다방,비알콜 음료점업,범박동,37.4673174360858,126.822007320274,커피점/카페커피전문점/카페/다방비알콜 음료점업,범박동%20청년다방,https://m.place.naver.com/restaurant/1605463968,경기 부천시 옥길로 113 상림프라자 102호,4.44,/차돌세트 푸짐해요.볶음밥도 맛있어요/오랜만에 방문해서 맛있게 먹고 갑니다~/매운 떡볶이 맛나요~/차돌떡볶이 맛있어요 :)/차돌세트 맛있어요./양도 많고 맛있어요/맛있는곳 알바생 응대는 별로/가격이… ㅠㅠ/좋아요/음식도맛있구 직원도 친절하고 넘좋아요,/4.44/430개 평점 398명 참여,145
감탄떡볶이범박점,분식,떡볶이전문,분식 및 김밥 전문점,범박동,37.4712023995777,126.809567347043,분식떡볶이전문분식 및 김밥 전문점,범박동%20감탄떡볶이범박점,https://m.place.naver.com/restaurant/784508270,경기 부천시 범안로 117,4.42,/포장해먹기 좋음/매장 직원분도 친절하시고 양도 엄청 많고 맛있습니다/굿/좋아요/굿/굿~ㅋ/굿/떡볶이 맛있음니다/굿/굿,/4.42/571개 평점 359명 참여,220
명인참치,일식/수산물,참치전문점,일식 음식점업,범박동,37.4726990381664,126.813240425213,일식/수산물참치전문점일식 음식점업,범박동%20명인참치,https://m.place.naver.com/restaurant/37038975,경기 부천시 양지로92번길 9-3 상정프라자 101호,4.32,/^^/맛있어요/신선하고 맛있어요👍👍👍👍👍짱/😃/^^/🤭/^^/^^/좋아요/맛있어요,/4.32/44개 평점 43명 참여,39
범박식당,한식,한식/백반/한정식,한식 음식점업,범박동,37.4671348442594,126.811870125257,한식한식/백반/한정식한식 음식점업,범박동%20범박식당,https://m.place.naver.com/restaurant/36438461,경기 부천시 양지남로 49,4.45,"/역곡에서 자주가는 맛집. 가보면 왜 맛집이라 하는지 알 수 있습니다. 가성비 좋은 이탈리아 레스토랑이라 데이트코스나 가족모임 장소로 최고예요./완전 맛있어요!!! 빵을 까르보나라 소스에 찍어 먹으면 꿀맛!!/근처에 이렇게 맛있는 파스타집이 있는줄몰랐어요~ 가격도 좋고 맛도있어서 자주 올 듯하네요 :) 빠네 강추에요!!/여기 로제 빠네 엄청 맛있어요! 크림도 넉넉해서 빵 다 찍어 먹기 충분해요~~ 피자도 토핑 다양하게 먹을 수 있어 좋네요!/명란크림파스타에 명란이 많아요. 크림의 풍미와 잘 어울립니다. 알리오올리오 파스타도 깔끔하고 맛있습니다. 사장님이 친절하세요/맥주와 함께 즐길 수있는 파스타 맛있어요! 특히 칼칼한 불마녀 파스타 추천해요:)/초창기 범박동 카페거리 생길때부터 지금까지 쭉 자리를 지키고 있는 몇 안되는 식당 중 하나예요. 분위기 내고 싶을때가 아닌, 파스타를 후루룩 먹어버 리고 싶을때 먹기 좋은 곳 아닌가 싶어요. 배달 주문 했는데요~ 최소 주문이 5,000원 이상이면 된다니요😘😁😄 혼밥할때 딱 좋았습니다./오랫만에와서 맛있게,잘먹었어요 여전히,친절하세요~/메뉴가 많아서 좋아요. ^.^* 아이와 함께 오기도 좋아요. 저희는 리조또 시켰어요~ 근처에서 스파게티 먹으러 왔는데 분위기도 괜찮네요./파스타는 역시 빠네😘 맛있어요 양이 많아서 둘이 다 못 먹을 정도네요 히힛",/4.45/492개 평점 426명 참여,355
도미노피자부천옥길점,패스트푸드,피자전문,"피자, 햄버거, 샌드위치 및 유사 음식점업",범박동,37.4717534455927,126.816884316529,"패스트푸드피자전문피자, 햄버거, 샌드위치 및 유사 음식점업",범박동%20도미노피자부천옥길점,https://m.place.naver.com/restaurant/872571013,경기 부천시 양지로 125 예품빌딩 1층,4.36,"/씬피자 부담없고 맛있어요/친절하고 맛있어요/피자집중 내 입맛에 제일 잘맞는 도미노피자/부천페이가능, 도미노피자 굿/피자 맛있어요/어린이날 기념 방문 포장하면 50% 할인이래요~!! 참고하셔여|!/더욱번창하세요/넘 맛있고 친절하시네요!/도미노피자 체고..~/맛있어요 포장해가기 좋아요",/4.36/366개 평점 313명 참여,193
한라산도새기,한식,갈비/삼겹살,한식 음식점업,범박동,37.4721850284989,126.814096440567,한식갈비/삼겹살한식 음식점업,범박동%20한라산도새기,https://m.place.naver.com/restaurant/58353341,경기 부천시 양지로 102,4.41,"/고기도 청국장도 맛나요/일요일 점심에 아내와 방문하였습니다. 메뉴는 제주명품흑돼지오겹살 2인분, 계란찜, 공기밥을 주문하였습니다. 물통에 반찬 찌거기와 물티슈에 소스 같은 찐득한게 붙어 있었지만 그러려니 하였습니다. 고기는 양이 조금 부족해 보였지만(2인분 360g) 적당히 두툼해 아내가 좋아하기에 넘겼습니다. 문제는 계란찜이었는데 적당히 먹을만 했지만 계란찜 안에서 둥글고 다리가 많이 보이는 무언가가 누워있었습니다. 쥐며느리…종업원이 확인하.../제주도에 가지않고 제주고기 먹을수 있어서 좋았어요./오늘 같이 흐린 날에 생각나는 한라산 도새기 오겹살 역시 맛나용~~/좋아여/오랜만에 방문했네요. 맛있어요/주변고깃집에서 먹어본 고기중 최고에요.,, 그리고 비빔냉면 맛집 ㅠㅠ고기도 냉면도 다다다다다맛있어요ㅠㅠ앞으로삼겹살은 이곳으로!/냉면이 맛있어요/친절하고 맛있어요 역시소문대로네요/좋아요",/4.41/105개 평점 91명 참여,43
육대장,한식,한식/백반/한정식,한식 음식점업,범박동,37.4730613277981,126.813426886801,한식한식/백반/한정식한식 음식점업,범박동%20육대장,https://m.place.naver.com/restaurant/33758558,경기 부천시 양지로 93,4.3,"/육칼 맛있어요~/평소에자주가서 먹어요 한끼 배부르게먹었어요^^ 어른, 애들 같이 먹을수있어서좋아요/맛있는 육계장. 육대장/육칼 칼칼해서 맛있어요~~/국물이 찐하고 맛있어요/좋아요~/굿/ㅎ/육칼이 더 잘나오는 듯📌/딸이 면이 먹고싶다해서 면좀주면 안되냐니까 단호하게 안된다니 면추가도없고 기분상해서 다신안간다",/4.3/514개 평점 434명 참여,193
이강숯불갈비,한식,갈비/삼겹살,한식 음식점업,범박동,37.4744610858647,126.81194634488,한식갈비/삼겹살한식 음식점업,범박동%20이강숯불갈비,https://m.place.naver.com/restaurant/38711169,경기 부천시 양지로 69,4.19,/고기랑 반찬은 맛있었는데 된장찌개가 반찬만큼의 맛은 아니였어요 유난히 큰목소리로 술먹으며 대화하는 가족때메 시끄러워 좀 불편했어요/왕갈비하고 밑반찬이 맛있어요/고기가 맛있어요/갈비가 맛있어요/좋아요/왕갈비도 맛있고 반찬이 깔끔하고 맛있어요/ㅅ/맛있어요~/말이 필요없는집 그냥 가서 드세요 밑반찬에 우무가사리가 웬말이냐 사이드메뉴에 추가해주세요!! 1년 4계절 먹게!!!/간만에 외식~ 갈비 맛나게 잘 먹었어용~♡,/4.19/85개 평점 81명 참여,39
죽이야기,별식/퓨전요리,죽전문점,한식 음식점업,범박동,37.4672485119523,126.821420571102,별식/퓨전요리죽전문점한식 음식점업,범박동%20죽이야기,https://m.place.naver.com/restaurant/12789908,경기 부천시 범안로 117 현대리치모아상가 126호,4.41,/언제 먹어도 맛있습니다. 죽 먹고 싶을때는 항상 여기서 먹고 있어요./맛있네요/굿굿/야채양이 아쉽네요../좋아요/좋아요/좋아요/좋아요/굿/너무 맛있고 친절하세요.,/4.41/69개 평점 73명 참여,41
얌샘김밥,분식,라면김밥분식,분식 및 김밥 전문점,범박동,37.4626379553638,126.812698640049,분식라면김밥분식분식 및 김밥 전문점,범박동%20얌샘김밥,https://m.place.naver.com/restaurant/1232756989,경기 부천시 범안로 221,4.43,/김밥이 밥은 얇고 속은 꽉찬 김밥이어서 맛있어요! 돈까스랑 탕수육도 바삭해서 잘 먹었습니다~~/왜 포장인데..매번 젓가락이나 단무지등 하나도 안챙겨주고 달랑 음식만 넣는지 모르겠어요ㅡㅡ;;; 저번에는 포장해서 확인했는데 또 안 넣어서 손으로먹었는데 일일이 포장해갈때 마다 소비자가 직접 확인하고 달라고 해야하게 너무 불편해요. 귀찮거나 코스트 절감 때문이라면 그래도 손님한테 좀 물어보고 선택해서 할수있게 하지.. 포장에 모두 빼는지 이해가 안갑니다./친절하지는 않아요/맛있어요~/점심~/점심으로/적당한 가격..적당한 맛^^/항상 맛나게 먹어요 김밥이 맛있어요/좋아요/굿,/4.43/356개 평점 236명 참여,192
홍루이젠,패스트푸드,샌드위치전문점,"피자, 햄버거, 샌드위치 및 유사 음식점업",범박동,37.4655747846638,126.827076332873,"패스트푸드샌드위치전문점피자, 햄버거, 샌드위치 및 유사 음식점업",범박동%20홍루이젠,https://m.place.naver.com/restaurant/1127590879,경기 부천시 양지남로 22 1층,4.51,/항상맛있네요/맛있어요/👍🏻/샌드위치 맛있어요/맛있어요 새로나온 신상도 좋네요/굿/좋아요/굿/맛나요./굿,/4.51/174개 평점 159명 참여,73
이디야커피,커피점/카페,커피전문점/카페/다방,비알콜 음료점업,범박동,37.4626382960409,126.812732545861,커피점/카페커피전문점/카페/다방비알콜 음료점업,범박동%20이디야커피,https://m.place.naver.com/restaurant/33252921,경기 부천시 양지로67번길 26,,/자주 가는곳이에요/자주 이용하고 있어요! 굳굳/친절하세요 ㅋㅋ 글구 좀 넓고 조용해서 좋았어요 ㅋㅋ/좋아요/화장실도 안에 있어서 편해요~/맛있어요 조용하고 넓어요/굿/맛있고 친절해요^^/굿,,114
코바코,양식,돈가스전문점,서양식 음식점업,범박동,37.4672485119523,126.821420571102,양식돈가스전문점서양식 음식점업,범박동%20코바코,https://m.place.naver.com/restaurant/1247295677,경기 부천시 양지로184번길 29,4.38,"/혼밥하기 좋고 김치찌개돈가스 칼칼하니 맛있었어요!/사장님 친절하시고 혼밥해도 좋은 곳이에요 맛도 좋아요/요기 맛있어요♡/근처 일 있어서 갔다가 방문 했는데 맛있네요 친절하고 맛나고 새우돈까스 정식 아이랑 둘이 먹었어요 10,000 원인데 넘 잘 나오네요 ^^/돈까스가 바삭바삭 맛있어서 종종 먹어용/양도 푸짐하고 맛도 풍부하고 맛있어요~/주차하기가 힘들어서 멀리 차대고 걸어가서 포장하는데 손님중에 아는 사람이 왔는지 계속 그쪽이랑 얘기만하고 다른 손님이 와도 아는척도 안하네요. ㅎㅎ 결국 테이블에 앉아 있던 손님이 눈치를 주고나서야 저에게 어서오세요 하네요. ㅎㅎ 매장도 좁아서 음식 나올 때 까지 밖에서 기다리는데 뻔히 밖에서 기다리는거 알면서도 이미 음식이 나왔음에도 나왔다는 말 한마디 안하고 기분이 좀 그렇더군요. 바쁜 점심시간도 아니고 손님도 한테이.../굿/좋아요",/4.38/158개 평점 140명 참여,75
옥길동커피,커피점/카페,커피전문점/카페/다방,비알콜 음료점업,범박동,37.4669179977131,126.823517071921,커피점/카페커피전문점/카페/다방비알콜 음료점업,범박동%20옥길동커피,https://m.place.naver.com/restaurant/387395309,경기 부천시 범안로 117,4.16,/건물 안쪽에 있어 창문뷰가 없어 아쉽지만 커피도 맛있고 친절한곳/좋아요/굿/굿/맛있어요~♡♡/굿/좋아요/분위기 좋고 친절하세요 ㅎㅎ/굿/맛있어요 샌드위치 쵝오,/4.16/19개 평점 21명 참여,11
옥길동갈매기,한식,갈비/삼겹살,한식 음식점업,범박동,37.4679798269767,126.822471716806,한식갈비/삼겹살한식 음식점업,범박동%20옥길동갈매기,https://m.place.naver.com/restaurant/1654114240,경기 부천시 양지로171번길 29 1층,,"/갈매기살 가격이 저렴해서 부담 없습니다 맛도 양념이 잘 되어 있어서 괜찮아요, 직원분들도 친절하십니다/갈매기살이맛있어요 그리고맥주를 시원하게 해주니 조아요/괜찮아요/음식의 맛은 있었지만 서비스가 최악이에요. 저희가 시킨 음식이 옆 테이블에 갔다 오는 것까지는 바쁘셔서 그렇겠지~ 라며 기분 나빠하시는 부모님께 이해하라는 식으로 말했어요. 그런데 계산을 할 때 4인분을 시켰는데 5인분이라고 찍혀있고 먹지도 않은 음료수도 찍혀있었어요. 어머니께 얼마 안 나 왔네요~라고 하시더라고요? 4인분 시켰고 다른 고기 추가했다고 말씀드려도 아니라고 이것도 1인분 추가했다고 기분나쁘다는 식으로 갸우뚱거.../신선하고 맛나요! 고기도 냄새안나고 맛있어요!/ㆍ/G/밑반찬이 잘 나오고 가성비가 좋습니다 갈매기 전문이라서 갈매기살이 넘 부드럽고 맛있구 육회도 넘넘 맛있어요 육회가격도 넘 저렴하고 가격대비 맛이 짱짱입니다/깨끗하고 친절하며 맛도 좋아요/맛나요!",,37
커피에반하다,커피점/카페,커피전문점/카페/다방,비알콜 음료점업,범박동,37.468597723533,126.821184599758,커피점/카페커피전문점/카페/다방비알콜 음료점업,범박동%20커피에반하다,https://m.place.naver.com/restaurant/1525191265,경기 부천시 양지로184번길 8-14,4.42,/좋아요/가성비가좋아요/콜드브루는 커반이 진심최고에요! 여기서 먹으면 딴데꺼 맛없어서 못먹어요.ㅋㅋ 커반콜드브루 최고♡/굿/좋아요/친절해요!!!/좋아요/맛있어용/좋아요/좋아요,/4.42/133개 평점 114명 참여,59
원할머니보쌈,한식,족발/보쌈전문,한식 음식점업,범박동,37.4698038772609,126.819255143309,한식족발/보쌈전문한식 음식점업,범박동%20원할머니보쌈,https://m.place.naver.com/restaurant/12928616,경기 부천시 부일로 732,4.42,/보쌈이 맛있어요./👍/ㅎㅎ/굿/좋아여/좋아요/좋아요/여자친구랑 한참 먹고 왔어요~/보통/.,/4.42/207개 평점 192명 참여,94
토프레소,커피점/카페,커피전문점/카페/다방,비알콜 음료점업,범박동,37.4698399931171,126.809385467564,커피점/카페커피전문점/카페/다방비알콜 음료점업,범박동%20토프레소,https://m.place.naver.com/restaurant/1250249781,경기 부천시 양지로184번길 21 1층 토프레소 옥길점,4.74,/커피 맛나네요/이미 옥길동에 꽤 많은 분들이 단골이지요? 아인슈페너만 먹다가 아메리카노랑 카야토스트도 배달시켜 먹어봤는데 역시👍👍👍/제조시간이 오래걸려서 미리 전화드리고 가요~ 네이버 주문에 아인슈페너 L사이즈 주문도 있으면 좋겠습니다. 기분이 다운되는 날 이 곳 아인슈페너 를 먹으면 금새 충전됩니다. ^^/아인슈페너 맛집이라 할 수 있어요. 옥길동 카페에 있는 아인슈페너는 다 먹어봤는데 여기가 제일 맛있네요. 300원 추가하면 디카페인으로 변경도 돼 서 저녁에도 부담없이 즐기기 좋습니다./여기 아인슈페너 커피가 참 맛있어요/좋아요/커피 너무 맛있어요/굿/특별한 커피맛은 아니지만 오며가며 잘 마셨어요/조아요,/4.74/197개 평점 77명 참여,71
테이크파이브,유흥주점,빠/카페/스탠드빠,일반유흥 주점업,범박동,37.4732739104564,126.813061755155,유흥주점빠/카페/스탠드빠일반유흥 주점업,범박동%20테이크파이브,https://m.place.naver.com/restaurant/35769982,경기 부천시 양지로67번길 42,4.62,/커피와 음료들의 맛이 기본적으로 우수하다. 인근에선 가장 높은 수준의 맛. 공간이 넓고 자리도 넉넉하다. 특색있는 테마 인테리어 장식들도 재미있다./분위기조아요/커피도 맛있고 사장님도 친절하셔요~/음료도 맛있지만 계란빵도 추천해요 :)/좋아요/좋아요/좋아요./ㆍ/조아용 자주와요 분위기 조음/분위기 조아용 매번 와용,/4.62/376개 평점 275명 참여,152
Bhc치킨,닭/오리요리,후라이드/양념치킨,치킨 전문점,범박동,37.4712023995777,126.809567347043,닭/오리요리후라이드/양념치킨치킨 전문점,범박동%20Bhc치킨,https://m.place.naver.com/restaurant/1416221622,경기 부천시 양지로67번길 34,4.46,/너무 맛있어요^^양도많고 신선해여 감사합니다/늘 핫뿌링클~~매우면서 땡기는맛~~ 시즈닝이 넉넉히 많아 넘 좋아여~^^/매장도 청결하고 맛도 😀/후라이드치킨 너무 맛있어요 치즈볼도 맛있어요^^/맛초킹 맛있어요/굿/좋아요/좋아요/자주 갑니다./굿,/4.46/26개 평점 35명 참여,37
이디아,기타음식업,고속도로휴게소,그외 기타 음식점업,범박동,37.4736904041381,126.812365539063,기타음식업고속도로휴게소그외 기타 음식점업,범박동%20이디아,https://m.place.naver.com/restaurant/33252921,경기 부천시 양지로67번길 26,,/자주 가는곳이에요/자주 이용하고 있어요! 굳굳/친절하세요 ㅋㅋ 글구 좀 넓고 조용해서 좋았어요 ㅋㅋ/좋아요/화장실도 안에 있어서 편해요~/맛있어요 조용하고 넓어요/굿/맛있고 친절해요^^/굿,,114
베스킨라빈스부천범박점,패스트푸드,아이스크림판매,제과점업,범박동,37.475249946229,126.808858725198,패스트푸드아이스크림판매제과점업,범박동%20베스킨라빈스부천범박점,https://m.place.naver.com/restaurant/11783142,경기 부천시 범안로 77,4.42,/초콜릿 무스를 시켰는데 체리? 딸기? 맛이 나왔네용? 다른맛들은 제대로 나왔는데... 너무 늦은시간에 가서 피곤하셨나봐요.. 그래도 맛있어서 모두 만족했어요!!/어피치 맛있어여~~^^/친절하진 않아요/다른매장에 비해 큰 특징은 없습니다. 신메뉴 있어서 먹어봤는데 괜찮네요./굳/맛나고 위생적이고 포장 완전 잘되어서 배달 빠르고 모든 점에 만족합니다./맛있어요/굿/매장은 작지만~여러가지맛 다 있구요 알바생들 ~~열씸이십니다,"/4.42/1,083개 평점 830명 참여",451
박지훈Restaurant,일식/수산물,음식점-일식,일식 음식점업,범박동,37.4705232151822,126.812811325728,일식/수산물음식점-일식일식 음식점업,범박동%20박지훈Restaurant,https://m.place.naver.com/restaurant/37941936,경기 부천시 양지남로23번길 8-12 1층,4.4,"/올해 음식값이 1,000원씩 인상되었다. 음식에 변화를 주고자 노력한 부분이 엿보인다. 미예약 시 오래 기다려야 함을 꼭 기억하세요.^^/일요일 점심시간에 자리는 여유가 있었어요. 음식은 무난한편입니다./자주 가는 집인데 이번엔 포장으로... 그런데 3인분 메밀2,우동1 주문했는데 집에 와보니 우동1이 빠졌네요. 그것땜에 다시 갈수도없고... 먹다만 느낌./맛있게 먹었어요/위생에 좀더 신경써주세요~~/좋아요/자주가는 곳이라 사진을 못찍었는데 가격대비 맛은 짱/좋아요/맛있어요/굿",/4.4/210개 평점 185명 참여,87
국수나무,분식,국수/만두/칼국수,분식 및 김밥 전문점,범박동,37.4712023995777,126.809567347043,분식국수/만두/칼국수분식 및 김밥 전문점,범박동%20국수나무,https://m.place.naver.com/restaurant/33213315,경기 부천시 범안로 117,4.4,/친절하고 맛있어요/굿/./굿/맛나요/가도가도 항상 맛있어요/돈가스가 젤 맛있네영/같은 국수나무 아니에요 이집이 맛있어요/맛있어요/좋아요,/4.4/148개 평점 126명 참여,80
국수나무,분식,국수/만두/칼국수,분식 및 김밥 전문점,소사본동,37.4754451585627,126.79877098426,분식국수/만두/칼국수분식 및 김밥 전문점,소사본동%20국수나무,https://m.place.naver.com/restaurant/1884442386,경기 부천시 은성로67번길 12 소새울kcc스위첸 근린상가시설 2동 1층 202로,4.4,"/맛이 조금 아쉬워요/이곳 국치정식은 언제나 옳아요~👍ㅎㅎ/동네 맛집/양도 많고 맛도 좋고~~~ 우리동네 진정한 맛집이에요~~~👍💕ㅎㅎ/넘 맛있게 잘먹었습니다 겨울철 소바도 맛있고 싸이드돈까스도 입에 살살녹아요^^/굿/돈까스, 떡볶이 맛있어요. 제육볶음은 괜찮지만 살짝 짠 편이에요/친절하니 좋아요",,101
신도시다방,커피점/카페,커피전문점/카페/다방,비알콜 음료점업,소사본동,37.4787254789071,126.793517649691,커피점/카페커피전문점/카페/다방비알콜 음료점업,소사본동%20신도시다방,https://m.place.naver.com/restaurant/1319124517,경기 부천시 소삼로 6,,,,empty
수란두화,중식,중국음식/중국집,중식 음식점업,소사본동,37.4802089482822,126.793199831666,중식중국음식/중국집중식 음식점업,소사본동%20수란두화,https://m.place.naver.com/restaurant/1280069436,경기 부천시 부일로 554-1,,,,empty
하늘분식,분식,라면김밥분식,분식 및 김밥 전문점,소사본동,37.4819467333377,126.79131759505,분식라면김밥분식분식 및 김밥 전문점,소사본동%20하늘분식,https://m.place.naver.com/restaurant/1146315162,경기 부천시 경인로324번길 12,,,,empty
두꺼비식당,한식,한식/백반/한정식,한식 음식점업,소사본동,37.4799923879122,126.793169395713,한식한식/백반/한정식한식 음식점업,소사본동%20두꺼비식당,https://m.place.naver.com/restaurant/1747514524,경기 부천시 호현로 473,,,,empty
골뱅이포차,유흥주점,소주방/포장마차,기타 주점업,소사본동,37.4753153555329,126.794872620992,유흥주점소주방/포장마차기타 주점업,소사본동%20골뱅이포차,https://m.place.naver.com/restaurant/1455481695,경기 부천시 경인로536번길 34,4.33,/밑반찬 깔끔하고 친절해요/낮시간에 고등어구이 알탕 먹었어요. 고등어구이 맛있어요/음식이 깔끔하고 다 맛있어요/다 맛있어요/아침 일찍 간단하게 반주 하기 조아요/친절하세요/백반은 좀 약해요/음식이 다 정갈하고 맛있어요 사장님도 친절하세요/좋아요,/4.33/32개 평점 39명 참여,22
한솥,분식,라면김밥분식,분식 및 김밥 전문점,소사본동,37.4813116161099,126.792650689737,분식라면김밥분식분식 및 김밥 전문점,소사본동%20한솥,https://m.place.naver.com/restaurant/13376437,경기 부천시 호현로489번길 6,4.56,/역시한솥/요즘 코로나 땜에 매장내 취식이 안되는것 같더라구요 전 항상 포장해서 괜찮았어요~/사장님 친절을 베풀어 주셔서 감사합니다. 추운 날 한 끼 식사 잘 했습니다./좋아요/사장님들이 마스크를 잘 안 쓰시네요/좋아요/맛있어요 양도 많고!/좋아요/사장님 너무 친절하시구 맛있어요!/한솥 돈까스도련님은 사랑입니다,/4.56/183개 평점 123명 참여,53
바지락칼국수,분식,국수/만두/칼국수,분식 및 김밥 전문점,소사본동,37.4726069108803,126.794350850421,분식국수/만두/칼국수분식 및 김밥 전문점,소사본동%20바지락칼국수,https://m.place.naver.com/restaurant/37779128,경기 부천시 은성로 84,4.04,/평균은 합니다/청렴해요/맜있어요/칼국수 잘 먹었습니다/맛있어요/맛있어여/좋네요/굿,/4.04/35개 평점 34명 참여,8
복어대감,한식,한식/백반/한정식,한식 음식점업,소사본동,37.4824450834381,126.796001846068,한식한식/백반/한정식한식 음식점업,소사본동%20복어대감,https://m.place.naver.com/restaurant/19392236,경기 부천시 소사로 214,4.23,"/친절하시고 적당히 먹을만큼 메뉴를 권해주셔서 좋았습니다 맛도 물론 좋았구요^^/너무 맛있어요!! 회 많이 먹고싶어서 활어사시미로 시켰는데 회는 당연하게 맛있고 튀김이나 무침, 지리탕도👍 다음에 또 가고싶어요~/맛있어요!! 반찬이 맛있고 무침이 새콤하니 넘 좋네요/음식도깔끔하고 맛있어요~~^^/좋아요/맛있고 사장님이 친절해요~/활참복지리 먹엇는데 국물도 시원하고 정말맛있엇어요처음 먹어보는건데 거리낌없이 맛있어서 잘 먹엇어요 다음에 또 이용할게요 잘 먹었습니다 🤍/맛 전문/5~6년은 된 단골입니다. 환절기되면 감기를 달고살아서 꼭 잊지않고 복어매운탕을 찾게되는데요. 복어매운탕 먹고나면 감기가 뚝 떨어지거든요. 맛도 좋거니와 나오는 반찬들이 집밥처럼 맛있어요. 사장님이 인심이 좋으셔서 양도 푸짐하게 주셔서 저희 식구 모두 가족 모임도 자주 이곳에서 할 정도로 맛집입니다. 코로나시대에 면역력이 중요한데 오늘도 복어매운탕 잘 먹고 갑니다. 또 방문할께요~^^/어버이날 부모님과 식사하려고 방문했습니다. 활참복코스 주문하였고 복어껍질무침, 복어묵, 복어불고기, 복어회, 복지리 등 다양하게 먹었습니다. 음 식 하나하나에 정성이 느껴지고 맛있네요. 특히 사장님이 너무 친절하십니다~^^",/4.23/39개 평점 41명 참여,29
아싸비어소사,유흥주점,호프/맥주,기타 주점업,소사본동,37.4753163143255,126.79761987258,유흥주점호프/맥주기타 주점업,소사본동%20아싸비어소사,https://m.place.naver.com/restaurant/1311589639,경기 부천시 은성로 61-1 1층,4.55,/굿/좋어요/좋아요/굿/좋아요/./굿/아이스크림 가격이 착해여/깔끔하고 친절해요/좋아여,/4.55/43개 평점 43명 참여,47
세종구내매점,한식,한식/백반/한정식,한식 음식점업,소사본동,37.480512350953,126.791148492694,한식한식/백반/한정식한식 음식점업,소사본동%20세종구내매점,https://m.place.naver.com/restaurant/1001016921,경기 부천시 호현로489번길 28 세종병원구내 매점,,/굿/괜찮아요/굿/친절해요/좋아요/친절해요/좋아요/굿,,8
남해아구찜,일식/수산물,아구전문,한식 음식점업,소사본동,37.4806674454544,126.795747710549,일식/수산물아구전문한식 음식점업,소사본동%20남해아구찜,https://m.place.naver.com/restaurant/1489565187,경기 부천시 소사로 220,,/음식이 너무 짜요./싸고 맛있어요,,2
산새공원카페,커피점/카페,커피전문점/카페/다방,비알콜 음료점업,소사본동,37.4752824398944,126.790769210731,커피점/카페커피전문점/카페/다방비알콜 음료점업,소사본동%20산새공원카페,https://m.place.naver.com/restaurant/1597068937,경기 부천시 은성로 1,,/저렴하며 커피 맛나요/맛있어요,,2
대보포차,유흥주점,호프/맥주,기타 주점업,소사본동,37.478541011953,126.794866042609,유흥주점호프/맥주기타 주점업,소사본동%20대보포차,https://m.place.naver.com/restaurant/19441954,경기 부천시 부일로445번길 20,,,,2
호원냉면,한식,냉면집,한식 음식점업,소사본동,37.4776799597498,126.795252968427,한식냉면집한식 음식점업,소사본동%20호원냉면,https://m.place.naver.com/restaurant/37700640,경기 부천시 소사로 217,4.38,"/환장하게 맛있음😍 살얼음 동동 시원하니 냉면 맛 제대로 느낄 수 있어요. 냉면이 원래 이렇게 맛있는 음식이었나요,,돈까스도 촉촉 바삭이 공존하는 경양식의 정석이네요. 현주민들로부터 꾸준히 인기가 많은 이유를 알겠어요! 너무 맛있게 잘 먹고 가요👏/가격도 착하고 양도 많아 남겼네요.. 번창하세여/돈까스 냉면 가성비 좋고 맛있어요^^/직원들도 넘맛나게 먹었습니다 ^^ 레알 소사 맛집이셔요/가게는 손님이 많아 복작거리지만 모두 친절하시고 냉면이 시원하고 맛있습니다./냉면 짱맛 여긴 돈까스도 맛있어요!/500원 인상해도 맛은 그대로,,, 소사역 소확행/넘맛나게 잘먹었습니다 ^^/가격은 많이 올랐지만 냉면처돌이는 맛있어서 자주 가요..../돈까스맛있어요","/4.38/1,010개 평점 821명 참여",472
코리안바베큐,닭/오리요리,후라이드/양념치킨,치킨 전문점,소사본동,37.4800682466365,126.795305073784,닭/오리요리후라이드/양념치킨치킨 전문점,소사본동%20코리안바베큐,https://m.place.naver.com/restaurant/31609052,경기 부천시 소사로 243,4.32,/한식바비큐가 젤 맛있어요/😀/많이파세요/좋아요/ㅒ/그럭저럭 괜춘 괜춘/맛있어요/./서울 지점보다 가격이 더 싸요~ 완전 맛있어요~^^/좋아요,/4.32/51개 평점 53명 참여,13
투썸플레이스부천MJ컨벤션점,커피점/카페,커피전문점/카페/다방,비알콜 음료점업,소사본동,37.4817853797173,126.798465965003,커피점/카페커피전문점/카페/다방비알콜 음료점업,소사본동%20투썸플레이스부천MJ컨벤션점,https://m.place.naver.com/restaurant/1587830942,경기 부천시 경인로 386,4.33,/가까워서 좋아요/넓어서 좋아요/매장 크고 넓어서 좋네요/같이먹은사람이맛있다고하네요/투썸이야 머 ㅎㅎ/굿/굿/굿/친절하고 좋습니다,/4.33/532개 평점 487명 참여,197
맛골김밥,분식,라면김밥분식,분식 및 김밥 전문점,소사본동,37.4707188216644,126.795636026101,분식라면김밥분식분식 및 김밥 전문점,소사본동%20맛골김밥,https://m.place.naver.com/restaurant/36901147,경기 부천시 소사로 141 1층,4.49,/주인 바뀌신 후 가게도 청결해지고 무엇보다 양도 많고 음식이 다~ 맛있어요.^^ 셀프 반찬이며 국이며 계속 먹을 수 있어서 가성비 최고입니다. 앞으로도 부담없이 자주 찾아갈꺼 같아요./일하기전 주문했는데 ㅜㅜ김밥이 다 터지고 가격대비 김밥양이 다른곳에 비해 너무 작아요ㅜㅜ/별루/굿/굿/굿/식사하러 와여/혼자 점심시간 피해서 갔는데요 점심 장사방해될까봐요 저 혼자 식사중인데 단체손님이 오더라구요 여자 직원분이 저보고 자리를 바꾸라네요? 테이 블 크기와 의자수도 같은데요 ㅎㅎ 굉장히 불쾌한 말투로말하더군요 단체손님들한테는 똑같은 자리 못앉아서 어떡하냐며 ㅎㅎ친절하게 말하더라구 요 저는 손님 아닌가요? 일부러 점심시간 피해서 갔는데 눈치보여서 코로먹었는지 입으로 먹었는지도 모르게 빨리 먹고 나왔어요 오늘 처음가봤.../김밤싸는데 시간이 넘 느려서 기다리는데 짜증나요/김밥짱.이에욤,/4.49/59개 평점 63명 참여,32
황금풍천장어숯불꼼장어,일식/수산물,곰장어전문,한식 음식점업,소사본동,37.4798478639113,126.795783477008,일식/수산물곰장어전문한식 음식점업,소사본동%20황금풍천장어숯불꼼장어,https://m.place.naver.com/restaurant/1376874266,경기 부천시 소사로 242,4.51,/항상 자주 가는 곳입니다 항상 친절하시고 좋습니다 유명한 백마강 풍천장어 보다 맛도 더 좋습니다~^^/간만에 맛있는집에서 모임햇네요./가격도저렴하고 직접 잡아서 주시니 싱싱하고 맛나요/ㅡ/맛있어요./좋아요/굿/특별한 날에 가도 좋고 일상적인 날에 가도 좋아요! 친절하고 맛있습니다 :)/장어가 싸요...맛도좋구요.../싱싱하고 깔끔해요.,/4.51/109개 평점 104명 참여,65
장충도도왕족발,한식,한식/백반/한정식,한식 음식점업,소사본동,37.4801776460288,126.793663895675,한식한식/백반/한정식한식 음식점업,소사본동%20장충도도왕족발,https://m.place.naver.com/restaurant/21007382,경기 부천시 경인옛로22번길 24,4.61,/맛나요/맛있어요/아/맛있어요/미니족 맛있어요/친절합니다/굿/배달빨라요/족발 구입했는데 괜찮아요/괜찮아요,/4.61/54개 평점 42명 참여,19
슬비식당,한식,한식/백반/한정식,한식 음식점업,소사본동,37.480077278195,126.793541139571,한식한식/백반/한정식한식 음식점업,소사본동%20슬비식당,https://m.place.naver.com/restaurant/19423849,경기 부천시 호현로 472 순영 케이타워,3.97,,/3.97/17개 평점 14명 참여,19
복사골,한식,한식/백반/한정식,한식 음식점업,소사본동,37.4712011557981,126.795221306563,한식한식/백반/한정식한식 음식점업,소사본동%20복사골,https://m.place.naver.com/restaurant/1237333074,경기 부천시 소사로 102 5층,4.44,"/1일권 끊어보고 쾌적하고 조용해서 4주권 끊었습니다. 시설도 깨끗하고 관리가 잘되어있어서 공부하기 좋아요/굿/공부하기 정말 좋은 곳 입니다~~!! 편하게 집중해서 공부하실 분들은 방문해 보세요~~^^/깨끗하고 쾌적하고 조용합니다./ㅎ/자격증 공부로 정액권 이용중이에요. 여긴 항상 깨끗해서 신경쓰이는 일도 없고 직원분도 친절하세요. 특히 화장실이 쓰기좋아서 편해요. 공부하는 사람들도 다들 매너가 좋으신 것 같습니다 💪 글구 커피머신이랑 얼음이 있어서 아아 굿☕️/굿/작심룸 연장했습니다~ 책상이 넓어서 책을 여러권 펼쳐놓거나 인강 들으면서 책 펴놔도 부담이 없어서 좋아요! 위쪽 수납공간도 넉넉해서 얼마든지 책 이나 개인 물품을 넣을 수 있어요^^ 프린터를 쓸 수 있는 공용공간, 휴게실, 화장실 모두 깨끗하게 관리가 되어서 기분 좋게 이용하고 있습니다. (오래 있 어야하는데 화장실 더러우면 이거 엄청 스트레스더라고요ㅎㅎ) 솔직히 말해서 집에서 움직이는 사람 없이, TV 안틀었을 때 만큼 고요하진 않습.../매니저님도 친절하시고 관리도 잘 되어서 매번 여기만 이용해요👍👍/휴게실이랑 스터디룸 모두 관리가 잘 되어있어서 깔끔하고 쾌적해요~! 관리자분도 넘넘 친절하십니다😝😝",/4.44/52개 평점 49명 참여,43
냠냠숯불두마리치킨,닭/오리요리,후라이드/양념치킨,치킨 전문점,소사본동,37.4794716515776,126.796886221152,닭/오리요리후라이드/양념치킨치킨 전문점,소사본동%20냠냠숯불두마리치킨,https://m.place.naver.com/restaurant/1925058319,경기 부천시 소삼로 47,4.9,/맛있어요! 숯불양념 중간맛 했는데 맵찔이인데도 맛있게 잘먹었습니다~/숯불치킨 레알 너무 맛있어요 기존 치킨만 먹다가 냠냠숯불치킨 먹으니 신세계네요 넘 맛나서 밥 비벼 먹을뻔 했어요/근래 먹은 치킨 중 가장 맛있었어요 서비스도 좋고 친절하셔서 또 방문하고 싶습니다!/숯불향 가득한 치킨 너무너무 맛있었어요! 가격도 비싸지 않아 부담없어서 좋았고 양념이 너무 맛있어서 손에 묻은것 까지 아까웠습니다. 친절하게 잘 대해주셔서 더 기분좋게 먹고 나왔어요. 감사합니다./굿/굿/요즘 튀긴 치킨보다 굽굽하는 숯불치킨에 빠져가지고 시켜먹었는데 넘 맛있네요. 밥이랑 같이 먹기도 딱 좋고 손이가요 손이갑니다./ㅎㅎ 불맛이 은은하게 입혀져있ㅇㅓ요~ 냄새도 안나고 고기가 굉장히 부드랍네유/숯불양념구이 맛있어요! 맛있게 매운 계속 땡기는 맛이에요👍/ᆢ,/4.9/34개 평점 35명 참여,44
사랑방왕돈까스,양식,정통양식/경양식,서양식 음식점업,소사본동,37.4813116161099,126.792650689737,양식정통양식/경양식서양식 음식점업,소사본동%20사랑방왕돈까스,https://m.place.naver.com/restaurant/1966358552,경기 부천시 호현로 473,4.75,"/완전맛나요/굳/김치찌개는 괜찮아요. 반찬은 돈가스용 반찬이라(흰무절임, 양배추, 깍두기,두부) 백반용으로는 좀 이상하긴 해요/좋아요!/굳/친절합니다/가성비 짱이에요/굿~/ㆍ/맛있어요",/4.75/36개 평점 39명 참여,25
반달커피,커피점/카페,커피전문점/카페/다방,비알콜 음료점업,소사본동,37.4762255056355,126.793116918122,커피점/카페커피전문점/카페/다방비알콜 음료점업,소사본동%20반달커피,https://m.place.naver.com/restaurant/1237949116,경기 부천시 소사로201번길 41 1층,4.63,/^♡^/좋아요/커피 굿/맛있어요~~/조하요~~~ 맛잇어요!/케이크 맛있어요/좋아요/배달도 빨리 잘오고 맛있었어요 담에는 케이크도 시켜볼려구요 듣던데도 바닐라라떼 맛있네요/👍/아메리카노가 너무 맛있어요!,/4.63/72개 평점 58명 참여,25
응응스크르,패스트푸드,아이스크림판매,제과점업,소사본동,37.4688580208819,126.800492969553,패스트푸드아이스크림판매제과점업,소사본동%20응응스크르,https://m.place.naver.com/restaurant/1605068286,경기 부천시 소사로102번길 55 소사청구아파트(상가),4.5,/집앞에 아이스크림 할인매장 잇어서 좋아요 냉동실에 그득그득 채워놧네요/맛있어요/좋아요/좋아요/편리해요/굿/좋아요/좋아요/굿/아이스크림 없었는데 오늘 가니 좀 있네요!,/4.5/272개 평점 126명 참여,72
뽀독,커피점/카페,커피전문점/카페/다방,비알콜 음료점업,소사본동,37.4797188060013,126.797266672132,커피점/카페커피전문점/카페/다방비알콜 음료점업,소사본동%20뽀독,https://m.place.naver.com/restaurant/36960478,경기 부천시 소삼로 47-1 푸르지오 아파트 상가 125호,4.46,"/털이 많이 엉켰었눈데 잘 풀어주시고 엄청 예쁘게 잘 잘라주셨어요!! 감사합둥/이게 7만 오천원짜리 커트는 좀 아닌 거 같음 ㅠㅠ/울집 탄이단골 미용실입니다.친절하고 깔끔해서 좋아요./항상 친절하고 강지에게 진심인것 같아요/강아지가 미용하고와서 다리를 30분동안 핥고 못오게 하길래 후레쉬 비춰서 봤더니 앞다리 관절쪽이 시뻘개져있었음. 미용하면서 충분히 이럴수있다 고 생각함 하지만 사장님이 전화받더니 전혀 모르는 얘기라며, 자기 직원아니고 프리랜서 미용사라고함. 직접 미용사랑 통화하라고 나몰라라.. 이게 말 이되는건지 이런 애견미용샵에서 미용받는 강아지도 안됐지만 일하시는 미용사분들도 일하는 가게에서 보호를 받지 못받는게 넘 안쓰러웠음 . (.../울집 막내 단골 미용실입니다./좋아요/좋아요~/울집 막내단골미용실입니다./울집 막내탄이가 이뻐졋네요",/4.46/83개 평점 72명 참여,40
카페,커피점/카페,커피전문점/카페/다방,비알콜 음료점업,소사본동,37.4827328116336,126.795058769099,커피점/카페커피전문점/카페/다방비알콜 음료점업,소사본동%20카페,https://m.place.naver.com/restaurant/1138407256,경기 부천시 은성로62번길 13 백암빌딩 101호,4.7,"/아빠 환갑 기념으로 떡케이크 주문했는데 너무 예쁘고 예쁜만큼 맛도 있었어요!!💓 단호박설기로 주문했는데 부모님도 많이 안 달고 담백하니 맛있다 고 하셨어요 :) 주인공 아빠 입맛 취향 저격✨ 떡이 촉촉하고 쫀득쫀득하니 씹을때마다 은은한 단호박 단맛이 나서 넘 매력적이더라구요ㅠㅠ 꽃 앙금도 예쁜데 부드럽고 적당한 단맛이 나서 넘 맛있었어요,, 떡이랑 앙금이랑 같이 한 입 먹으면 이 곳이 천국😇 떡케이크 처음 주문해봤는데 너무 만.../친구가 여기 케이크 너무 맛있고 부드럽다고 하길래 언제 한 번 먹어 버려야지 벼르고 있다가... 초코를 좋아하는 친구 생일에 오레오가나슈케이크 주문 했어요 🤤 완전 부드러운 크림 + 찐~한 가나슈 + 오레오 조합 진짜 미친 녀석이에요,,,,,, 저는 이렇게 보들보들 촉촉한 케이크 겨드랑이에 털 나고 첨 먹 어 봐요 🥰 저는 사실 초코를 별로 안 좋아하는 편인데도 이 미친 조합에 정신 놓고 와구와구 퍼 먹었고,,, 초코쟁이인 친구들은 지금까지 먹었던 .../항상 케이크 주문은 스윗하모니에서 해요😍!! 일단 사장님께서 너무 친절하시고 원하는대로 잘 만들어주셔서 올때마다 만족도 최상입니다👍🏻👍🏻 그리구 제가 주문한 케이크는 크림치즈?맛이었는데 케이크 속까지 알차게 맛있었어요 넘 감사합니다 또 방문할게요>_<♥️♥️/기존에 브랜드 카페에 비해 메뉴들이 다들 특색있어서 너무 좋았어요 :-) 특색이 있다고 해서 막 튀거나 독특하지도 않고 너무 맛있게 먹었습니다-! 사장님도 너무 친절하시고 메뉴들도 예쁘게 포장돼서 선물하기도 좋은 것 같아요! 저는 모카케이크랑 로투스케이크 먹었는데, 다음에는 기념일에 주문제작 해보려구요!! 기념일에 선물하기도, 가볍게 먹기에도 다 좋은 것 같아요 :-)/휘낭시에 맛집이에요!!! 레터링케익과 디저트맛집! 꼭 한번씩 가보셔요!!!/케이크 주문했는데 너무 예쁘고 너무 맛있어요!! 다른 디저트도 엄청 맛있어요 케이크나 디저트 별로 안좋아하시는 분들도 여기서 드시면 계속 생각나실거예요ㅠㅠㅠㅠ스윗 하모니 짱❤️❤️❤️❤️/색감도 너무 예쁘고 진짜 맛있어요!! 너무 달지도 않아서 특히 어른분들께 선물하기 좋을 것 같아요!!👍👍 사장님도 짱 친절하시구 최고입니당🥰/원하는대로 케이크 디자인이 예쁘게 나와서 1차 만족, 맛있어서 2차 만족, 가격도 합리적이어서 3차 만족,, 사장님도 친절하셔서 첫 주문 제작 케이크 기분좋게 성공했네요💖 다른 메뉴들도 많던데 다음에 또 주문해야겠어요!! 감사합니다 >,</사장님이 넘 넘 친절하시고 가게도 엄청 청결했어요 >__< 일단 케이크가 넘 예쁘고 .... 딱 제가 원하는 대로 만들어주셔서 완존 만족이에요 ㅠㅠㅠㅠ 다음에 또 주문할게요 ㅎㅎㅎ/🍓딸기찹쌀떡 맛집🍓 딸기찹살떡 먹고 싶으시다면 무조건 스위트하모니! 너무너무 맛있어요ㅜㅜ 지인 추천으로 먹게됐는데 또 주문하려구요♥ 사장님 너무 잘먹었습니다 최고💕💕👍🏻👍🏻 번창하세요~~!!",/4.7/20개 평점 21명 참여,20
마시쩡,패스트푸드,아이스크림판매,제과점업,소사본동,37.4719685398419,126.803348678275,패스트푸드아이스크림판매제과점업,소사본동%20마시쩡,https://m.place.naver.com/restaurant/1946667761,경기 부천시 소사로159번길 26,4.27,/굿/굿/여름에 아이스크림 굳굳~~/저렴하구 다양한 종류/문구류도 있어서 넘 좋아용💖/아이스크림 많고 좋아요/좋아요/좋아요/좋아요/좋아요,/4.27/206개 평점 128명 참여,122
명륜진사갈비,한식,갈비/삼겹살,한식 음식점업,소사본동,37.4730402947287,126.804190792463,한식갈비/삼겹살한식 음식점업,소사본동%20명륜진사갈비,https://m.place.naver.com/restaurant/1032702452,경기 부천시 은성로 132,4.11,"/집앞 진사갈비 진심 매주갑니다. 집에서 삼겹살 굽는거 싫어해서 가성비 정말 최고입니다. 사실 집에서 한근반 사면 실컷 먹지만 숯불에 밑반찬에 음료 에 야채에.. 이정도면 14900원이 가성비 대만족입니다. 그래서 된찌랑 냉면까지 시켜먹어요ㅎ 코로나 이후로 손님 없어서 전세내고 내집처럼 구어먹 었는데 모처럼만에 만석이라 사진한번 올립니다. 쌈장이랑 야채가 금방 털어지더라고요ㅎ 코로나 이후로 이렇게사람 많았던적이...장사 잘되시.../사이드메뉴를 시켰는데 안나오길래 물어봤더니 오래걸릴거같아서 취소했다네요? 말도없이 ㅋㅋㅋ 이런 일 처음 당해보고 네이버 리뷰도 처음 써봐요 ^^ 본인이 실수로 주문 안넣은거같은데 말도 없이 취소를? 그리고 이후에 해당 메뉴 가져다주면서 소스를 던지더라구요 ..처음 들어갔을 때부터 가격 오른거 알고왔냐고 비꼬면서 묻더니...사회생활 해본 사람인지 궁금하네요 아 ,사실 위에 말한 이야기는 사회생활 안해봐도 기본으로 하지말아.../맛도 좋고 셀프바도 깨끗해서 좋은데, 주말낮에 근무하시는알바생분 불빼시는거 말씀도않고 멀뚱 서있으시더니 불빼시는거 당황스러웟습니다.. 다음엔 말씀해주시고 빼주셨으면 좋겠어요!!^^/사이드 메뉴가 별로없어요.../한산한날 방문해서 맛있게 먹었습니다!^^/삼겹살이 진짜진짜 맛있고 사장님이 친절하세요/알바가 어리버리../식구들과 한달에 두어번씩 가는데 정말 숯불에 고기를 이렇게 맘껏 먹을 수 있어 넘 좋아요 요즘 고깃값도 많이 올라 야채사고 찬꺼리 만들면 이 금액 나오는데 진사갈비에서 편하게 먹고 와서 넘 좋습니다. 사장님도 친절하시고 알바학생도 친절해요^^ 자주자주 오겠습니다. 자영업자들 힘내세요/맛나요 근데 약간 정신없어요~/사장님이 무척 친절하시네요",/4.11/196개 평점 196명 참여,82
홍이모옛날통닭,닭/오리요리,후라이드/양념치킨,치킨 전문점,소사본동,37.4789856912507,126.794293592011,닭/오리요리후라이드/양념치킨치킨 전문점,소사본동%20홍이모옛날통닭,https://m.place.naver.com/restaurant/1346409978,경기 부천시 호현로474번길 31,4.59,"/전번에 엄청 감동하면서 먹었어서 오늘 오랜만에 들렀어요.집에서 도보 30분거리지만,오늘은 집에 들렀다가 전에 사장님이 주차장 알려주셔서 차갖구 가서 종알종알 떠들며 순살,껍질,매운닭꼬치~ (닭꼬치 사진이 없는 이유는 오는길에 다 먹어치워버려서~소스듬뿍~땅콩분태듬뿍~내뱃살도 듬뿍^^;) 전 에 맛본 야채순살 사먹고 싶었는데 날이 더워지면 안하신다니...여름이 지나가길 기다려야겠네요. 사장님,따님 여전히 친절하시고 기분 좋았어요.../어즈께 유툽알고리즘으로 우연히 보고 함 가볼까했어요. 집에서 걸어서 30분 안팎거리... 아근데 진짜 맛나네요~ 똥집이랑 닭껍질 튀김은 오면서 맛만 본다는게 멈출수가 없드라고요.원래 양은 더 많아요^^;반이상이 집에 오는길에 제뱃속으로 ctrl+v되 버려서...(싸장님 죄송해요ㅠㅡㅠ) 둘이 먹긴 넘 많 은듯 해서 순살야채튀김과 똥집을 고민하다 똥집을 픽했는데...막판에 맛보라고 꼬지에 꽂아주신 한댕이에 살짜쿵 후회가 되기도...ㅋㅋㅋ 한번 .../단골입니다 맛있고 양까지 많아요 그리고 친절하십니다. 앞으로도 쭉 단골할거에요/자주 방문하는 곳 이에요~ 맛 있고 좋아요. 소사시장 맛집이네요/가격이저렴하고 옛날통닭입니다./가성비 좋고 너무 맛잇어서 자주 시켜먹습니다!!/몇년째 단골이에요 혹여 다른 가게걸 먹어봐도 닭비린내도 있었고 여기처럼 바삭하지도 않아서 결국은 다시 여기것만 먹게 되네요 염지도 그렇고 바삭함도 그렇고 특별한 기술이 있는듯 하네요 사장님도 항상 친절하시고 계속 번창하셨음 좋겠어요/가격도 싸고 맛도 좋아요~/맛잇고 양많고 너무 좋습니다/자주 들러서 사먹는데 항상 맛이 좋아요~~~!!",/4.59/279개 평점 247명 참여,253
치킨플러스,닭/오리요리,후라이드/양념치킨,치킨 전문점,소사본동,37.4712973521314,126.795818928492,닭/오리요리후라이드/양념치킨치킨 전문점,소사본동%20치킨플러스,https://m.place.naver.com/restaurant/1058896095,경기 부천시 소사로 146,4.62,"/집근처고 가격도 착하고 사장님도 친절하세요~ 전화 방문포장시에 2천원할인or후루룩떡볶이를 주시더라구요~~~떡볶이 선택했는데 맛있어요^^ 아쉬 운점은 다른 타 체인점 치킨에 비해 닭이 작은건지 양이 적은건지 둘이 먹는데 하나 남았나?늘 이집저집 같이 먹던 친구도 작다고 그러고 저도 좀 공감 이되더라구요. 그래도 무튼 잘먹었습니다👍 양이 적은건지,/여사장님께서 정말! 친절하십니다! 방문포장 시 받을 수 있는 떡볶이가 너무 맛있어요👍/굿/여기 진짜 친절하고 맛있어요ㅠㅠㅠ♡♡♡/여사장님의 친절한 응대 덕분에 부담없이 방문 포장을 자주 합니다. 넘 친절하셔서 방문할 때마다 기분이 좋아요. 그래서 다른 치킨집 주문 안합니다. 항상 번창하고 변함없기를./매우만족합니다 자주 주문해야 겠네요/매우만족합니다 계속 주문 이용하고 있읍니다/후라이드 치킨이 바삭하고 맛있어요 -!/매우만족합니다 가격대비 가성비 좋은 곳/맛있어요♡♡",/4.62/62개 평점 52명 참여,27
인생아구찜,일식/수산물,아구전문,한식 음식점업,소사본동,37.479782282675,126.794653899762,일식/수산물아구전문한식 음식점업,소사본동%20인생아구찜,https://m.place.naver.com/restaurant/1866387114,경기 부천시 소삼로15번길 23 1층,4.41,/맛있어요. 아구양이 적어요./진짜 인생알찜이에요 존마탱탱탱!!!/굿굿 너무 맛있어 깔끔하게 다 먹었네요/처음 시켰는데 맛도 양도 괜찮네요 아구찜 정말 좋아하는데 종종 시킬듯하네요/인생까지는아닌것같지만 나쁘지않아요 가성비이정도면좋아요/인생알찜♡/가격이랑 맛모두 괜찮아요~/알 많이 넣어주셔서 잘먹었습니다/오랜만에 먹었는데 맛있어요/맛이 괜찮아요,/4.41/131개 평점 140명 참여,74
카페G,커피점/카페,커피전문점/카페/다방,비알콜 음료점업,소사본동,37.4800908743959,126.795756964261,커피점/카페커피전문점/카페/다방비알콜 음료점업,소사본동%20카페G,https://m.place.naver.com/restaurant/37243999,경기 부천시 소사로 244,4.32,/딸아이 병원갈때 마다 들르는 디져트 가게예요./친절하세요./사장님친절하시고 조용한분위기좋습니다/좋아요/굿/시운해요/시원하니 좋네요/좋아요,/4.32/19개 평점 23명 참여,15
빨간통피자,패스트푸드,피자전문,"피자, 햄버거, 샌드위치 및 유사 음식점업",소사본동,37.4772852732098,126.796310755636,"패스트푸드피자전문피자, 햄버거, 샌드위치 및 유사 음식점업",소사본동%20빨간통피자,https://m.place.naver.com/restaurant/38420349,경기 부천시 소삼로30번길 27,,/피자가 맛있고 저렴해요/맛있었어요/맛있었어요/☆☆☆/피자는 여기서만 먹어요/맛있어요 치즈 많이 올려주세요/정말 맛있어요 또 주문할께요/넘 맛있어요..드셔보세요~~/찾으러가면 3000원씩.할인해줘서 좋아요/유명 브렌드 피자보다 맛있고 사장님도 친절하세요,,12
낭만이흐르는호프앤포차,유흥주점,소주방/포장마차,기타 주점업,소사본동,37.4810414551166,126.794430155209,유흥주점소주방/포장마차기타 주점업,소사본동%20낭만이흐르는호프앤포차,https://m.place.naver.com/restaurant/1417192031,경기 부천시 경인옛로 22 110호,3.87,"/맛있어요/좋아요/좋아요/좋아요/굿/굿/어제 코로나 확진자 2400명 나왔는데 마스크를 전혀 안쓰시고 서빙하시더라구요,, 주방분도 저희 오니까 마스크 쓰시더니 주방에서는 턱스크,,그리고 음식 만들때 기침을 엄청 하셨는데 진짜 불안하더라고요,,/좋아요/굿",/3.87/31개 평점 34명 참여,9
이들,분식,국수/만두/칼국수,분식 및 김밥 전문점,소사본동,37.4707820871205,126.79919606816,분식국수/만두/칼국수분식 및 김밥 전문점,소사본동%20이들,https://m.place.naver.com/restaurant/1866949154,경기 부천시 은성로76번길 99 1층,4.6,/진짜 맛있어요 ♡ 저번에 그냥 방문하고 너무 맛있어서 또 왔어요! 따뜻한 분식집인거같아요/자주 오는 단골집입니다. 사장님 손이 크셔서.. 김밥 1줄만 먹어도 배가 넘 불러요. ㅎㅎㅎ 김밥 먹다보면 약간 질리는데 메뉴가 다양해서 좋아요. 전 '보 리새우진미채김밥'이랑 '고추짱아찌김밥'이 젤 좋더라구요. 나이가 들다보니.. 입맛이.. 종종 배달도 시켰는데 요즘엔 배달비가 비싸서 포장해서 먹어요 ./김밥은 물이생기고 생각보다 짜요 (싱겁게 먹는사람아님)/후기 남길 생각 없이 먹다가 찍어서 사진이 별로네요! 김밥 엄청 맛있어요 특히 소불고기와사마요! 양배추에서 와사비맛 살짝 나는게 소불고기랑 엄청 잘어울려요 속도 가드윽 들어있고 넘 좋아요!/맛있어요/김밥이 너무 맛있어요 카레향이 나는 떡볶이 스타일이에요./좋아요/좋아요/굿,/4.6/51개 평점 53명 참여,31
소문난곱창,한식,곱창/양구이전문,한식 음식점업,소사본동,37.4792790625839,126.793904466535,한식곱창/양구이전문한식 음식점업,소사본동%20소문난곱창,https://m.place.naver.com/restaurant/1846474123,경기 부천시 호현로474번길 24-2,4.31,/소사동에서는 항상 이 곱창집 애용합니다~ 맛나요~양도 많이 주시고 친절합니다~/양도 푸짐하고 가격대비 맛잇어용 사장님이친절해요^^/맛있어요/조아/좋아요/맛있어요~/좋아요/굿/굿/맛있아요,/4.31/59개 평점 50명 참여,37
수경왕만두,분식,국수/만두/칼국수,분식 및 김밥 전문점,소사본동,37.4777485538675,126.795794554751,분식국수/만두/칼국수분식 및 김밥 전문점,소사본동%20수경왕만두,https://m.place.naver.com/restaurant/1509654853,경기 부천시 소사로 220,4.45,/팥이 많이 들어있고 만두피 얇은거 맛있습니다 가격 조금씩 올랐는데 올라도 전혀 아깝지 않아요👏🤭/만두크기가 어마한데 피는 얇고 속은 꽉차있어요 가성비 짱좋은 맛집 저희는 자주 애용할것 같아요/김치 만두는 정말 맛있어요/언제나 맛있어요/김치만두 매콤하고 맛있음!!/만두 정말 맛있어요/맛있었어요/김치만두 맛있어요/만두 맛있어요/만두 찐빵 너무 맛있어요 내번째 방문해서 겨우 찐빵맛을 보았는데 너무 맛있어요 근대 조금 친절하게 하면 좋을거같아요,/4.45/115개 평점 100명 참여,68
국선참치,일식/수산물,참치전문점,일식 음식점업,소사본동,37.4775503574707,126.795797735285,일식/수산물참치전문점일식 음식점업,소사본동%20국선참치,https://m.place.naver.com/restaurant/1906970032,경기 부천시 소사로 220,4.33,/굿/참치 굿!/싱싱하고 맛있어요!!!!/E/굿/신선하고 맛난 참치집/조아요/좋아요~/깔끔하고 양도많아요!/친절하고 깨끗해고 신선한 참치회가 맘에 들어요,/4.33/45개 평점 44명 참여,16
BBQ치킨,닭/오리요리,후라이드/양념치킨,치킨 전문점,소사본동,37.4772388681881,126.795293967661,닭/오리요리후라이드/양념치킨치킨 전문점,소사본동%20BBQ치킨,https://m.place.naver.com/restaurant/11799011,경기 부천시 소사로 211-2 1층 비비큐,4.3,/걷에 껍질이 너무 바삭해서 좋았고요 안에 고기는 퍽퍽하지 않고 부드러워서 맛있게 먹었습니다! 또 시킬게요😉/배달비가 조금 올라서 아쉽지만 그래도 맛은 최고/제가 잘못 주문 해서 다른 메뉴시켰지만 그래도 맛있네요/맛있게 잘묵었어요~^^/너무너무 바삭바삭~!!!/맛있게 먹었어요/맛나요/맛있어요 다음에도 시킬게요/오늘도 비비뀨~~♡/비비뀨 좋아하는 한사람!^^,/4.3/362개 평점 274명 참여,216
소사떡집,제과제빵떡케익,떡전문,제과점업,소사본동,37.4791804260764,126.793951276792,제과제빵떡케익떡전문제과점업,소사본동%20소사떡집,https://m.place.naver.com/restaurant/1167902009,경기 부천시 호현로474번길 22,4.31,/굿/좋아요/좋아요/조아요/굿/굿/좋아요/맛있어요/좋아요/좋아요,/4.31/175개 평점 136명 참여,43
물에빠진스파게티,양식,스파게티전문점,서양식 음식점업,소사본동,37.478556040886,126.793689965632,양식스파게티전문점서양식 음식점업,소사본동%20물에빠진스파게티,https://m.place.naver.com/restaurant/1844026433,경기 부천시 은성로19번길 76 1층 103호,,,,8
칭구따라,유흥주점,호프/맥주,기타 주점업,소사본동,37.4750901323371,126.794876237682,유흥주점호프/맥주기타 주점업,소사본동%20칭구따라,https://m.place.naver.com/restaurant/1685095339,경기 부천시 은성로 38,,,,1
또묵지,한식,한식/백반/한정식,한식 음식점업,소사본동,37.4805917098673,126.793623319332,한식한식/백반/한정식한식 음식점업,소사본동%20또묵지,https://m.place.naver.com/restaurant/1235843399,경기 부천시 호현로 480,4.24,/국밥 맛있었어요/😊/먹을만해요!/국밥 엄청 맛있어요! 💖/괜찮아요/김치찌개 좋습니다/좋아여/맛은 그냥 반찬은 맛이별로/혼자 밥먹을 때 자주가요 진짜 맛있구 양도 많은 것 같습니다 ♡/굿,/4.24/34개 평점 32명 참여,14
밀밭골국수,분식,국수/만두/칼국수,분식 및 김밥 전문점,소사본동,37.4807431226011,126.79433319068,분식국수/만두/칼국수분식 및 김밥 전문점,소사본동%20밀밭골국수,https://m.place.naver.com/restaurant/1956711994,경기 부천시 소사로247번길 24,,"/친절하시고 가격 저렴한데 맛있었어요/김밥 2,000원으로 저렴해서 좋아요 근데 손님이 와도 지인분과 계속 대화하시고 김밥 마는데 지인분은 마스크도 안하시고 주인분과 계속 대화하셔서 불편했네요... 그래도 저렴하고 김밥도 맛있고 부천페이 결제도 가능해서 재방문의사 있습니다/맛있어요/괜찮아요/싸고 맛잇어요 ㅎㅎ/음식이 맛있고 친절합니다/괜찮아요/괜찮아요/좋아요/좋아요",,12
옛날시골통닭,닭/오리요리,후라이드/양념치킨,치킨 전문점,소사본동,37.4803681029026,126.793785203857,닭/오리요리후라이드/양념치킨치킨 전문점,소사본동%20옛날시골통닭,https://m.place.naver.com/restaurant/38643884,경기 부천시 경인옛로22번길 24,4.19,,/4.19/42개 평점 35명 참여,16
한잔비어,유흥주점,호프/맥주,기타 주점업,소사본동,37.4750901323371,126.794876237682,유흥주점호프/맥주기타 주점업,소사본동%20한잔비어,https://m.place.naver.com/restaurant/1706220241,경기 부천시 은성로 38,,/ㅅ,,1
한결남원추어탕,한식,추어탕전문,한식 음식점업,소사본동,37.4807431226011,126.79433319068,한식추어탕전문한식 음식점업,소사본동%20한결남원추어탕,https://m.place.naver.com/restaurant/1579103195,경기 부천시 소사로247번길 24,4.29,"/음식이 맛있어요, 자주 가요/시래기밥 맛있고 반찬도 정갈해요 누룽지도 좋아요/좋아요/좋아요/맛있음/좋아요~/좋아요/좋아요/좋아요~/맛있어요~",/4.29/118개 평점 96명 참여,35
우리집,한식,한식/백반/한정식,한식 음식점업,소사본동,37.4787254789071,126.793517649691,한식한식/백반/한정식한식 음식점업,소사본동%20우리집,https://m.place.naver.com/restaurant/19258436,경기 부천시 호현로439번길 32 부천우리노리어린이집,,,,3
한솥도시락서울신학대점,패스트푸드,도시락전문점,한식 음식점업,소사본동,37.4813116161099,126.792650689737,패스트푸드도시락전문점한식 음식점업,소사본동%20한솥도시락서울신학대점,https://m.place.naver.com/restaurant/13376437,경기 부천시 호현로489번길 6,4.56,/역시한솥/요즘 코로나 땜에 매장내 취식이 안되는것 같더라구요 전 항상 포장해서 괜찮았어요~/사장님 친절을 베풀어 주셔서 감사합니다. 추운 날 한 끼 식사 잘 했습니다./좋아요/사장님들이 마스크를 잘 안 쓰시네요/좋아요/맛있어요 양도 많고!/좋아요/사장님 너무 친절하시구 맛있어요!/한솥 돈까스도련님은 사랑입니다,/4.56/183개 평점 123명 참여,53
김밥천국,분식,라면김밥분식,분식 및 김밥 전문점,소사본동,37.4726169578384,126.794452435979,분식라면김밥분식분식 및 김밥 전문점,소사본동%20김밥천국,https://m.place.naver.com/restaurant/19258388,경기 부천시 호현로 495,4.16,/김밥 맛있는 김천./가볍게 포장해서 먹기 좋았습니다 맛도 있어요/🫶🏿/손이 너무 느리세요ㅠㅠ답답.. 그래도 맛있어요/굿/맛있어요/좋아요/굿/맛있어요~~/굿,/4.16/201개 평점 176명 참여,70
김밥마을,분식,라면김밥분식,분식 및 김밥 전문점,소사본동,37.4808292908144,126.792183579964,분식라면김밥분식분식 및 김밥 전문점,소사본동%20김밥마을,https://m.place.naver.com/restaurant/19438177,경기 부천시 호현로489번길 20,3.79,/ㅈㅇㅈ/굿/첫방문/참기름향이솔솔/일반김밥2000원. 그런대로 괜찮아요. 우엉들어갔어요,/3.79/12개 평점 13명 참여,5
59피자,패스트푸드,패스트푸드,그외 기타 음식점업,소사본동,37.481537069935,126.792669674956,패스트푸드패스트푸드그외 기타 음식점업,소사본동%2059피자,https://m.place.naver.com/restaurant/15006696,경기 부천시 은성로 83-1,4.24,/베이컨포테이토 맛있어요~ 가격이 좀올랐네요/도우가 맛있어서 일부러 오구피자로 먹습니다. 직원들 친절하고 주문해놓고 마트다녀오면 딱입니다./가성비 짱ㅎㅎ 맛있어요/굿/맛나요/친절/오랫만에 먹으니. 맛있네요/좋아요/깨가 아닌 것이 보이네요~/좋아요,/4.24/242개 평점 166명 참여,56
지리산솥뚜껑암돼지,한식,갈비/삼겹살,한식 음식점업,소사본동,37.4750736132563,126.795023475585,한식갈비/삼겹살한식 음식점업,소사본동%20지리산솥뚜껑암돼지,https://m.place.naver.com/restaurant/1502032101,경기 부천시 은성로 40 1층,4.09,"/동네에 이런 맛집 있어서 너무 좋아용/동네 찐 맛집이에요 ~~ 굿굿/솥뚜껑과 고기 조합 👍🏻/고기도 맛있고, 사장님 친절하시고~ 편안하게 식사하기 좋아요/소사동 맛집/굿굿/가성비 최고! 맛있습니다!/항상맛있게 잘먹습니다 감사합니다~~~/가성비 좋아요/싸고 맛있어요",/4.09/11개 평점 19명 참여,26
호원냉면&수제돈가스,양식,돈가스전문점,서양식 음식점업,소사본동,37.4776799597498,126.795252968427,양식돈가스전문점서양식 음식점업,소사본동%20호원냉면&수제돈가스,https://m.place.naver.com/restaurant/37700640,경기 부천시 소사로 217,4.38,"/환장하게 맛있음😍 살얼음 동동 시원하니 냉면 맛 제대로 느낄 수 있어요. 냉면이 원래 이렇게 맛있는 음식이었나요,,돈까스도 촉촉 바삭이 공존하는 경양식의 정석이네요. 현주민들로부터 꾸준히 인기가 많은 이유를 알겠어요! 너무 맛있게 잘 먹고 가요👏/가격도 착하고 양도 많아 남겼네요.. 번창하세여/돈까스 냉면 가성비 좋고 맛있어요^^/직원들도 넘맛나게 먹었습니다 ^^ 레알 소사 맛집이셔요/가게는 손님이 많아 복작거리지만 모두 친절하시고 냉면이 시원하고 맛있습니다./냉면 짱맛 여긴 돈까스도 맛있어요!/500원 인상해도 맛은 그대로,,, 소사역 소확행/넘맛나게 잘먹었습니다 ^^/가격은 많이 올랐지만 냉면처돌이는 맛있어서 자주 가요..../돈까스맛있어요","/4.38/1,010개 평점 821명 참여",472
오미청국장,한식,한식/백반/한정식,한식 음식점업,소사본동,37.4750584927927,126.79442452236,한식한식/백반/한정식한식 음식점업,소사본동%20오미청국장,https://m.place.naver.com/restaurant/31824962,경기 부천시 은성로 34-1,4.32,/김치찜하나랑 청국장하나시켰지만 3.4명도먹을수있을것같은 양. 맛도 양도 만족하고가요ㅎ/청국장 안먹던 제가 여기오고나서부터 오미청국장만자주 옵니다ㅎㅎ 소사동 강추 찐맛집 !!/강추~/굿/엉 마손맛/동네서 편하게 가고 싶은곳/반찬도 메인도 너무맛있어요!!!!!자극적이지않아서 좋아요❤/시골집 같은 엄마의 손맛/맛있어요/맛있어요,/4.32/103개 평점 108명 참여,62
show,별식/퓨전요리,샤브샤브전문,한식 음식점업,소사본동,37.4818210660789,126.794892505889,별식/퓨전요리샤브샤브전문한식 음식점업,소사본동%20show,https://m.place.naver.com/restaurant/15005272,경기 부천시 소삼로 26,,,,3
자매분식,분식,라면김밥분식,분식 및 김밥 전문점,소사본동,37.4815826756076,126.790961649758,분식라면김밥분식분식 및 김밥 전문점,소사본동%20자매분식,https://m.place.naver.com/restaurant/31729346,경기 부천시 부일로571번길 45-1,4.33,"/맛있었습니다./좋아요/굿/동생이랑 부천나와서 점심먹었어요/김밥에 야채가 좀 더 많이 들어갔으면 좋겠고, 사장님 부부가 좀 더 친절하셨으면 합니다./굿/굿/가성비좋아요/김밥맛있어용 사장님도 친절하십니당/야채김밥과 라면 먹었습니다. 군더더기 없어서 굉장히 맛있었습니다.",/4.33/84개 평점 78명 참여,27
토암골옛날막창,한식,곱창/양구이전문,한식 음식점업,소사본동,37.4766438179834,126.795258297063,한식곱창/양구이전문한식 음식점업,소사본동%20토암골옛날막창,https://m.place.naver.com/restaurant/1360727318,경기 부천시 부일로562번길 4,,,,empty
꾸브라꼬숯불두마리치킨,닭/오리요리,후라이드/양념치킨,치킨 전문점,소사본동,37.4740782561954,126.798148452622,닭/오리요리후라이드/양념치킨치킨 전문점,소사본동%20꾸브라꼬숯불두마리치킨,https://m.place.naver.com/restaurant/1617847608,경기 부천시 은성로68번길 26 1층,4.75,/맛있게 잘 먹었습니다!!/사장님이 친절하시고 음식도 맛있습니다./양많고 맛있어서 좋아요~~/처음 먹어밧는데 맛있어요/굿굿/우선 전화주문했는데 넘 친절 ^^ 숯불 보통맛과 소금구이 먹었는데 전 매운맛이 더 맛있더라구요 매운맛 좋아하시는 분은 보통맛 보다 매운 맛 추천합니다 글구 넘 착한 가격이네요/맛있었습니다/좋아요/맛있어요,/4.75/8개 평점 11명 참여,10
피자마루,패스트푸드,피자전문,"피자, 햄버거, 샌드위치 및 유사 음식점업",소사본동,37.4805062334134,126.791431251312,"패스트푸드피자전문피자, 햄버거, 샌드위치 및 유사 음식점업",소사본동%20피자마루,https://m.place.naver.com/restaurant/32637102,경기 부천시 호현로489번길 38,4.57,/굳/좋아요~/좋아요~/조아요/맛난 피자~~/굿/맛있어요/고향의 맛./피자늘맛있어요ㅎㅎ/맛있어요,/4.57/56개 평점 56명 참여,21
예찬솥밥추어탕,한식,추어탕전문,한식 음식점업,소사본동,37.4790656242535,126.793297363094,한식추어탕전문한식 음식점업,소사본동%20예찬솥밥추어탕,https://m.place.naver.com/restaurant/1405710770,경기 부천시 소삼로 1,4.41,/너무맛잇어어요 강추/맛있어요/친절하시고 음식도 맛있어요*^^*/좋아요 좋아요 좋아요/굿. 단골집이에요.^^/뻥튀기도 있고 추어탕 맛있어요/배부르고 맛있게 잘먹었습니다 다음에 또 방문해서 먹을께요~/너무 친절하시고 맛있게 잘 먹고 갑니다 든든하네요!!/가게 이전하셨네요. 여전히 맛있고 양도 많고 깨끗해요./전에도 몇 번 갔었는데 가계 이전하셨네요. 맛은 여전합니다.,/4.41/37개 평점 52명 참여,28
소문난밥집,분식,라면김밥분식,분식 및 김밥 전문점,소사본동,37.4801538395085,126.794862751778,분식라면김밥분식분식 및 김밥 전문점,소사본동%20소문난밥집,https://m.place.naver.com/restaurant/1092501825,경기 부천시 소삼로15번길 34-2,,,,1
스시990,일식/수산물,음식점-초밥전문,일식 음식점업,소사본동,37.4808864642793,126.79248793406,일식/수산물음식점-초밥전문일식 음식점업,소사본동%20스시990,https://m.place.naver.com/restaurant/13486894,경기 부천시 호현로489번길 13,4.41,"/맛있고 사장님이 친절해요♡/맛있었어요!!/맛나요/배고파 급하게 먹느라 사진을 못찍었네요 ㅠ 코로나로 외식도 어렵고, 날도 더운데 새로운 걸 먹고싶다며 요리조리 머리를 굴리다가 스시로 결정하고 테이크아웃했어요. 한 손에 가져갈 수 있도록 배려해주신 포장도 감사하고 연어초밥이랑 돈까스 모두 맛있네요. 화룡점정은 냉모밀이요. ^^ 다음에 또 주문할게요~/24/앗집추천합니다/좋아요/좋아요/맛있고 친절하세요/맛있어여",/4.41/34개 평점 38명 참여,10
향기커피호프,유흥주점,호프/맥주,기타 주점업,소사본동,37.4813116161099,126.792650689737,유흥주점호프/맥주기타 주점업,소사본동%20향기커피호프,https://m.place.naver.com/restaurant/1108383015,경기 부천시 호현로489번길 6,,,,empty
피제이피자,패스트푸드,피자전문,"피자, 햄버거, 샌드위치 및 유사 음식점업",소사본동,37.4725626416515,126.79885103547,"패스트푸드피자전문피자, 햄버거, 샌드위치 및 유사 음식점업",소사본동%20피제이피자,https://m.place.naver.com/restaurant/1441189969,경기 부천시 지봉로 73 1층 피제이피자,4.6,/페제이 피자 처음먹어봤는데 너무맛있구! 양도많구 친절해서 너무좋았어요~~!! 친구들이랑 맥주한잔하러오기도 너무좋을거같아요~! 다음에 또방문할게요!!!/맛있어서 매번 배달만 시켜먹다가 이번에 매장에서 먹었는데 와.. 더 맛있어요! 사이드도 그냥 다 맛있구요 사장님도 넘 친절😍/피자를 자주 먹는 편은 아닌데 먹게 되면 항상 여기서 포장주문해서 먹어요. 페퍼로니 피자는 피제이피자만한 데를 못 봤네요. 페퍼로니가 겹겹이 있어 서 치즈크러스트도우나 고구마 도우랑 잘 어울려요 오늘은 쿠폰 잃어버려서 서비스 메뉴는 말씀 안 드렸는데 사장님께서 챙겨주셔서 정말 맛있게 잘 먹었습니다~. 감사합니다~./뉴욕페퍼로니 짱/페퍼로니 존맛이에여 최애피자집/좋아요/👍/👍/좋아요/Good,/4.6/63개 평점 54명 참여,56
삼거리순대국식당,별식/퓨전요리,순대전문점,한식 음식점업,소사본동,37.4778780647771,126.792592875785,별식/퓨전요리순대전문점한식 음식점업,소사본동%20삼거리순대국식당,https://m.place.naver.com/restaurant/31619815,경기 부천시 호현로 477,4.57,"/오후 5시경에 고기 삶는다는 풍문을 듣고, 5시 넘겨서 갔는데..머리고기는 기대치에 못 미치네요. 김장김치는 맛 있는데../굿/맛있어요/맛나요/그냥저냥/오늘은 간단하게 술국,머리고기 먹었는데 맛있어요. 담에는 다른 메뉴도 먹어봐겠어요 맛있을것 같아요/고기굿/맛있어요^^/머릿고기 쫄깃하고 맛있어요 순대국은 제 입에는 약간 꼬릿한 냄새가 느껴지긴 했지만 맛있게 먹었어요. 화장실도 가게 안에 있고 시원해요",/4.57/27개 평점 24명 참여,17
비어클럽,유흥주점,호프/맥주,기타 주점업,소사본동,37.4753270160394,126.795132463135,유흥주점호프/맥주기타 주점업,소사본동%20비어클럽,https://m.place.naver.com/restaurant/37321567,경기 부천시 은성로 39-1,,/사장님 너무 친절하시고 치킨이 가성비 갑이예요!!♡♡ 번창하세요~/좋아요/맛있어요/좋아요~~/후라이드 시켰어요 가서 주문하고 찾아왔는데 금방 튀겨주시고 바삭해요 가격과 맛은 보통 수준 옛날치킨 느낌이에요/맛있어요,,6
대보회수산,일식/수산물,수산물전문음식점-종합,한식 음식점업,소사본동,37.478787135234,126.795144743451,일식/수산물수산물전문음식점-종합한식 음식점업,소사본동%20대보회수산,https://m.place.naver.com/restaurant/37320879,경기 부천시 소삼로 19,4.49,/회가 도톰한게 넘 맘에들어요/굿/굿/저렴해요/항상 잘 먹는 곳/굿/굿/양많고 맛있네요 어르신들 많은 동네 횟집 ㅎㅎ!/신선해요/좋아요,/4.49/200개 평점 157명 참여,83
도레미호프타운,유흥주점,호프/맥주,기타 주점업,소사본동,37.4753077301081,126.795008410917,유흥주점호프/맥주기타 주점업,소사본동%20도레미호프타운,https://m.place.naver.com/restaurant/21162427,경기 부천시 은성로 39,,,,2
부길왕갈비,한식,갈비/삼겹살,한식 음식점업,소사본동,37.4810384602959,126.792372423084,한식갈비/삼겹살한식 음식점업,소사본동%20부길왕갈비,https://m.place.naver.com/restaurant/19258985,경기 부천시 호현로489번길 14,3.91,/./굿/군/맛잇어요/굿/굿/조아요/병원갔다 찾아간 밥집/맛있어요/걍.그래요,/3.91/52개 평점 65명 참여,26
파리바게뜨,제과제빵떡케익,제과점,제과점업,소사본동,37.4811515350006,126.792856782686,제과제빵떡케익제과점제과점업,소사본동%20파리바게뜨,https://m.place.naver.com/restaurant/19258625,경기 부천시 소사동로 82 센트럴프라자 105호,4.34,"/샐러드 가성비가 좋아요.. 케이준샐러드 고기도 꽉꽉, 채소도 꽉꽉 담겨있어요 치킨 이렇게 주는 곳 못 본 듯해유!! 정량이 따로 없는지 의문도 드네요! 가늘게 썬건지 정량보다 더 주시는건지는 잘 모르겠지만 채소 우적우적 먹다보면 여기 지점의 제품은 치킨텐더가 밑에서 돌아다녀요 ㅋㅋ 체감상은 치킨텐더가 다른지점의 2배인데 원효대사 해골물이었다면 뭐 어쩔 수 없죠../맛있게 잘 먹었어요~~/가끔씩 갑니다/급하게 케이크 사야해서 들렀네요/빵이 신선해요/굿/집 근처 두 곳의 파리바게뜨 중에서 '소사주공' 지점이 빵 종류도 많고, 샌드위치와 샐러드 종류도 많이 만들어 놔서 구매하기 편해요 :)/빵도 다양하고 맛있어요/항상 친절하고 좋아요. 진열도 잘 되어 있어 편리해요/자주가요~ 앙금빵 맛있어용","/4.34/1,017개 평점 599명 참여",427
픽미픽미아이스,패스트푸드,아이스크림판매,제과점업,소사본동,37.4815241341814,126.793167371642,패스트푸드아이스크림판매제과점업,소사본동%20픽미픽미아이스,https://m.place.naver.com/restaurant/1590531154,경기 부천시 부흥로457번길 6 1층,4.53,/무인점포/좋아하던 아이스크림이 없어지고 색고드름이 생겼어요../굿굿/종류가 다양해서 좋아요/아이스크림 종류별로다양~~~ 싸고 좋아요~~/너무좋앙 싸고 좋아요/싸고맛있어요/좋아용~~/굿/찰떡아이스♡,/4.53/59개 평점 47명 참여,22
화오양꼬치,닭/오리요리,후라이드/양념치킨,치킨 전문점,소사본동,37.4798521477776,126.795319849614,닭/오리요리후라이드/양념치킨치킨 전문점,소사본동%20화오양꼬치,https://m.place.naver.com/restaurant/1378383248,경기 부천시 소사로 239-1,4.65,/단골맛집. 양꼬치도 신선하구 서비스로 주는 건두부무침~! 역시 맛있어요!/존맛탱/맛나요/굿/언제나 맛있어요/맛있어요/맛있네요/굿,/4.65/24개 평점 23명 참여,8
비어비워,유흥주점,호프/맥주,기타 주점업,소사본동,37.480077278195,126.793541139571,유흥주점호프/맥주기타 주점업,소사본동%20비어비워,https://m.place.naver.com/restaurant/1964373402,경기 부천시 호현로 476,,,,7
도로시,커피점/카페,커피전문점/카페/다방,비알콜 음료점업,소사본동,37.4797188060013,126.797266672132,커피점/카페커피전문점/카페/다방비알콜 음료점업,소사본동%20도로시,https://m.place.naver.com/restaurant/35850828,경기 부천시 소삼로 47-1 부천소사역 푸르지오 상가,4.4,/일부러 찾아가서먹는 대추차 진하고 너무좋다/음료 맛있어요/./좋아요/굿/굿/좋아요/좋아요/좋아요,/4.4/91개 평점 64명 참여,43
충남원,중식,중국음식/중국집,중식 음식점업,소사본동,37.4753160661501,126.792294927648,중식중국음식/중국집중식 음식점업,소사본동%20충남원,https://m.place.naver.com/restaurant/1962498384,경기 부천시 은성로 15 166-8,4.59,/좋아요/좋아요/좋아요/좋아요/좋아요/좋아요/좋아요/좋아요/좋아요/좋아요,/4.59/44개 평점 29명 참여,47
달구벌곱창막창,한식,곱창/양구이전문,한식 음식점업,소사본동,37.4703158386826,126.795879894394,한식곱창/양구이전문한식 음식점업,소사본동%20달구벌곱창막창,https://m.place.naver.com/restaurant/1063594290,경기 부천시 소사로 135,4.35,/좀 더 가면 나오는 생곱창 사용하는 가게도 가격이 18000원인데 여기는 굵기가 새끼손가락만한 곱창이 2만원이나 함. 그리고 곱창 굽고 자르기도 셀프 인 가게는 처음봄. 곱창 소스도 안줘서 달라니깐 테이블당 1개를 줌 ㅡㅡ 곱창 상태도 안좋고 서비스도 안좋고.. 옛날 리뷰에 속지 마세요../굿~/맛있어요~ 좀 느끼해서 청양고추 넣은 간장 소스 있으면 더 좋을듯!/굿/ㄱ/굿/너무너무 맛있어요 자주가는 단골집 ></맛있어요/굿/맛있고 친절해요~,/4.35/37개 평점 36명 참여,21
두꺼비포차,유흥주점,호프/맥주,기타 주점업,소사본동,37.4787585128488,126.793223158888,유흥주점호프/맥주기타 주점업,소사본동%20두꺼비포차,https://m.place.naver.com/restaurant/1747514524,경기 부천시 호현로 473,,,,empty
양우포차,유흥주점,호프/맥주,기타 주점업,소사본동,37.4824450834381,126.796001846068,유흥주점호프/맥주기타 주점업,소사본동%20양우포차,https://m.place.naver.com/restaurant/37319539,경기 부천시 소사로126번길 23,,/ㅎㅎ,,1
옛날짜장우동,중식,중국음식/중국집,중식 음식점업,소사본동,37.4764100469269,126.795307273152,중식중국음식/중국집중식 음식점업,소사본동%20옛날짜장우동,https://m.place.naver.com/restaurant/1402229098,경기 부천시 소사로 203,4.49,"/맛있어요/맛나요/우동 맛집!/잔치국수가 양도 많고 정말 맛있어요^^ 깍두기도 완전 대박 맛있음!!/./맛있어용/좋아요/맛있어요/굿/부천 국수 맛집이에요!! 잔치국수, 비빔국수, 김밥 진짜 맛있어요😋 양이 많은데 가격도 저렴해요🤍",/4.49/47개 평점 38명 참여,15
호커피,커피점/카페,커피전문점/카페/다방,비알콜 음료점업,소사본동,37.481092393617,126.794124061413,커피점/카페커피전문점/카페/다방비알콜 음료점업,소사본동%20호커피,https://m.place.naver.com/restaurant/37069466,경기 부천시 경인옛로22번길 8,4.22,/친절해서 좋았어요/굿/굿/좋아요/ㅈㅇㅇ/굿/좋아요/좋아요/굿/ㅈㅇㅇ,/4.22/58개 평점 51명 참여,25
할머니집,한식,한식/백반/한정식,한식 음식점업,소사본동,37.4811832961624,126.792437930975,한식한식/백반/한정식한식 음식점업,소사본동%20할머니집,https://m.place.naver.com/restaurant/21164942,경기 부천시 호현로489번길 10,4.28,/흠/#백반집#옛날 돌솥#그자리/그냥/좋아요/가끔 생각나는 곳! 뼈해장국이나 제육 맛있음 :)/맛나요/새벽에 병원 다녀오면서 먹었던 곳이예요,/4.28/25개 평점 24명 참여,7
종로떡,제과제빵떡케익,떡전문,제과점업,소사본동,37.4794168503163,126.794162295335,제과제빵떡케익떡전문제과점업,소사본동%20종로떡,https://m.place.naver.com/restaurant/1472297575,경기 부천시 소사로170번길 62,4.29,/굿./좋아요/굿/좋아요/좋아요/긧/굿,/4.29/175개 평점 158명 참여,71
시리우스호프,유흥주점,호프/맥주,기타 주점업,소사본동,37.4701722715909,126.795938721739,유흥주점호프/맥주기타 주점업,소사본동%20시리우스호프,https://m.place.naver.com/restaurant/1654055932,경기 부천시 부광로8번길 6,3.92,/굿/굿/좋아요,/3.92/12개 평점 14명 참여,3
이디야커피,커피점/카페,커피전문점/카페/다방,비알콜 음료점업,소사본동,37.4707188216644,126.795636026101,커피점/카페커피전문점/카페/다방비알콜 음료점업,소사본동%20이디야커피,https://m.place.naver.com/restaurant/1859138563,경기 부천시 소사로282번길 8,4.54,/좋아요 ㅎㅎ/친절하고 좋습니다/이디아 커피 맛있습니다./깔끔하고 좋네요. 이디야카페로는 근방에서 분위기있는 곳이네요/좋아여/././굿/굿/좋아여,/4.54/452개 평점 382명 참여,242
병천토부리순대,한식,한식/백반/한정식,한식 음식점업,소사본동,37.4815724124053,126.792601266861,한식한식/백반/한정식한식 음식점업,소사본동%20병천토부리순대,https://m.place.naver.com/restaurant/38503432,경기 부천시 호현로 493,4.21,/#순대#병천#토부리/아니 친절하고 담백하게 맛있는데 손님이 별로 없는게 납득이 안갑니다. 얼른 입소문 타길.. 맛집입니당./좋아요!! 맛있어요!!/가격대비 먹을만해요/국물이 깔끔/주변에 먹을만한 식당이 없어서 방문했었는데 에어컨도 안틀어져있고. .. 순대국에 순대가 별로 안들어가 있어서 가성비는 별로였던거 같아요. 그래도 국물은 괜츈했어요/사장님 친절하세요ㅎㅎ/맛있어서 다시왔어요/좋아요/맛있어요,/4.21/31개 평점 29명 참여,14
여우고개맛,한식,한식/백반/한정식,한식 음식점업,소사본동,37.4778632811685,126.792909681811,한식한식/백반/한정식한식 음식점업,소사본동%20여우고개맛,https://m.place.naver.com/restaurant/1846729442,경기 부천시 호현로 448-1,,,,5
페리카나,닭/오리요리,후라이드/양념치킨,치킨 전문점,소사본동,37.4722294420888,126.795329157566,닭/오리요리후라이드/양념치킨치킨 전문점,소사본동%20페리카나,https://m.place.naver.com/restaurant/11800334,경기 부천시 소사로160번길 26-2,4.64,"/저랑 동생 원픽 치킨집!! 결혼하고 다른 지점에서 시킬때도 소사3동 페리카나 잊지 않았어요~ 가게가 안보여서 장사 안하시나 아쉬웠는데 자리 살짝 옮기셨다고 동생이 알려줘서.. 오랜만에 친정 오면서 남편이랑 야식으로 시켰습니다~ 사장님이 기억해 주셔서 감동이고, 맛은 늘 한결 같네요^^ 번창하세요 사장님!/맛있고 가성비 좋고 친절해요./.../ㅋ/페리카나는 소사3점!!!/맛있고 푸짐합니다./친절하고 맛있어서 치킨을 항상 페리카나 소사3분점에서 주문합니다. 우리동네 맛집~/맛있고 친절해서 매번 이용합니다./부천시 최고 치킨집/꾸준히 맛있어요.",/4.64/73개 평점 66명 참여,45
또오래오리전문점,닭/오리요리,오리고기전문,한식 음식점업,소사본동,37.4800563547344,126.79856149082,닭/오리요리오리고기전문한식 음식점업,소사본동%20또오래오리전문점,https://m.place.naver.com/restaurant/15005492,경기 부천시 소사로247번길 11 1층,4.48,/또오래정식 👍 가성비 갑.. 맛 최고/맛나요./좋아요/맛나요/좋아요/곱창이 안질리고 부드러워요 근데 가성비는 있는지 모르겠네요/굿/닭도리탕 겁니 맛나요./좋아요/맛있어요,/4.48/42개 평점 46명 참여,22
깻잎치킨,닭/오리요리,후라이드/양념치킨,치킨 전문점,소사본동,37.4809217692335,126.79594714514,닭/오리요리후라이드/양념치킨치킨 전문점,소사본동%20깻잎치킨,https://m.place.naver.com/restaurant/1925058319,경기 부천시 소삼로 47,4.9,/맛있어요! 숯불양념 중간맛 했는데 맵찔이인데도 맛있게 잘먹었습니다~/숯불치킨 레알 너무 맛있어요 기존 치킨만 먹다가 냠냠숯불치킨 먹으니 신세계네요 넘 맛나서 밥 비벼 먹을뻔 했어요/근래 먹은 치킨 중 가장 맛있었어요 서비스도 좋고 친절하셔서 또 방문하고 싶습니다!/숯불향 가득한 치킨 너무너무 맛있었어요! 가격도 비싸지 않아 부담없어서 좋았고 양념이 너무 맛있어서 손에 묻은것 까지 아까웠습니다. 친절하게 잘 대해주셔서 더 기분좋게 먹고 나왔어요. 감사합니다./굿/굿/요즘 튀긴 치킨보다 굽굽하는 숯불치킨에 빠져가지고 시켜먹었는데 넘 맛있네요. 밥이랑 같이 먹기도 딱 좋고 손이가요 손이갑니다./ㅎㅎ 불맛이 은은하게 입혀져있ㅇㅓ요~ 냄새도 안나고 고기가 굉장히 부드랍네유/숯불양념구이 맛있어요! 맛있게 매운 계속 땡기는 맛이에요👍/ᆢ,/4.9/34개 평점 35명 참여,44
부원분식,분식,라면김밥분식,분식 및 김밥 전문점,소사본동,37.4778858028722,126.792468385182,분식라면김밥분식분식 및 김밥 전문점,소사본동%20부원분식,https://m.place.naver.com/restaurant/37319919,경기 부천시 호현로447번길 6,,,,1
중화각,중식,중국음식/중국집,중식 음식점업,소사본동,37.4795090018361,126.795246214987,중식중국음식/중국집중식 음식점업,소사본동%20중화각,https://m.place.naver.com/restaurant/13507681,경기 부천시 소사로 237-3,4.48,"/좋아요/좋아요/굿/좋아요/가격대비 양도많고 맛있었어여~/짜장면 짬뽕 넘 맛있어요! 사장님이 친절해용/우연히 갔는데, 숨겨진 맛집 👍/맛있고 사장님도 친절합니다!/늘 시켜먹는 곳인데 주위사람들도 소개하면 맛나다고 하네요./굿굿굿굿굿굿굿굿굿굿",/4.48/23개 평점 27명 참여,13
파리바게뜨,제과제빵떡케익,제과점,제과점업,소사본동,37.481974464306,126.793148821515,제과제빵떡케익제과점제과점업,소사본동%20파리바게뜨,https://m.place.naver.com/restaurant/19258625,경기 부천시 소사동로 82 센트럴프라자 105호,4.34,"/샐러드 가성비가 좋아요.. 케이준샐러드 고기도 꽉꽉, 채소도 꽉꽉 담겨있어요 치킨 이렇게 주는 곳 못 본 듯해유!! 정량이 따로 없는지 의문도 드네요! 가늘게 썬건지 정량보다 더 주시는건지는 잘 모르겠지만 채소 우적우적 먹다보면 여기 지점의 제품은 치킨텐더가 밑에서 돌아다녀요 ㅋㅋ 체감상은 치킨텐더가 다른지점의 2배인데 원효대사 해골물이었다면 뭐 어쩔 수 없죠../맛있게 잘 먹었어요~~/가끔씩 갑니다/급하게 케이크 사야해서 들렀네요/빵이 신선해요/굿/집 근처 두 곳의 파리바게뜨 중에서 '소사주공' 지점이 빵 종류도 많고, 샌드위치와 샐러드 종류도 많이 만들어 놔서 구매하기 편해요 :)/빵도 다양하고 맛있어요/항상 친절하고 좋아요. 진열도 잘 되어 있어 편리해요/자주가요~ 앙금빵 맛있어용","/4.34/1,017개 평점 599명 참여",427
더안카페,커피점/카페,커피전문점/카페/다방,비알콜 음료점업,소사본동,37.4723556824088,126.795338436524,커피점/카페커피전문점/카페/다방비알콜 음료점업,소사본동%20더안카페,https://m.place.naver.com/restaurant/37373390,경기 부천시 소사로 157,4.24,/친절하고 커피가 맛있어요/좋아요~/굿굿/굿/너무 친절하시고 커피향도 너무 좋아요ㅠㅠㅠ/커피가 생각보다 맛있진 않았지만 분위기는 좋았어요/친절하고 좋아요/💯🤗좋아요~ 좋아요~ 추천합니다👍💯/좋아요 좋아요 좋아요/사장님도 친절하고 2층은 편안하게 스터디 가능한 곳,/4.24/75개 평점 61명 참여,26
요거프레소,커피점/카페,커피전문점/카페/다방,비알콜 음료점업,소사본동,37.4801521103158,126.791165602833,커피점/카페커피전문점/카페/다방비알콜 음료점업,소사본동%20요거프레소,https://m.place.naver.com/restaurant/19426121,경기 부천시 신흥로56번길 30,4.37,/합리적인 가격에 좋아요/스무디 맛있어요/요거트 스무디 너무 맛있어요~/딸기바나나 잘 먹고 잘 쉬다갑니다./좋아요/또갈마음있어요/학교앞이라 자주 갑니다~/모닝커피한잔~ 사장님 친절하셔서 기분좋은 아침이네요~^^/좋아요/좋아요,/4.37/145개 평점 111명 참여,35
민물장어산꼼장어전문점,일식/수산물,곰장어전문,한식 음식점업,소사본동,37.4798478639113,126.795783477008,일식/수산물곰장어전문한식 음식점업,소사본동%20민물장어산꼼장어전문점,https://m.place.naver.com/restaurant/1281652860,경기 부천시 신흥로 38 1층 일부,4.37,"/꼼장어를 매우 좋아해서 부천지역 꼼장어집은 다 돌아다녀봤는데 진짜 먹어본 꼼장어집중 가장 빵이크고 튼실한 꼼장어가 일품입니다 반찬 종류가 많 지는 않지만 다 맛있습니다 양념꼼장어도 진짜 양념맛에 뭍히지않고 꼼장어 맛도 살아있어서 너무 좋았습니다 진짜 맛집이에용!!!! 꼼장어 참맛이 알고 싶으시면 진짜 강추강추/장어 맛있어요 잘 먹었습니다~~~~~/리뷰보고 가게되었는데 정말 친절한사장님과 맛있는음식으로너무기분좋은 한끼먹었습니다. 직접다구워주시고 정말장어가 굵고 입에가득찼어요 생강 이며 다신선하고 마무리로 장어탕과김치말이국수먹고정말기분좋은 한상이었어요 장어맛집 추천합니다/양도 많고 맛도 있고 부천에서 장어하면 제일 맛집인것 같아욤ㅎㅎ 동네라 왓다갓다 하다가 처음 방문했는데 부천에 유명한 장어집 저리가라 완전맛집 이예요ㅎㅎ 사장님들도 친절하시고 센스도 만점이세욤ㅎㅎ 앞으로 자주 방문할 예정입니당~^^ 번창하세요~~^^/맛있어요/국내산 장어라 그런지 확실히 살이 통통하고맛이 좋았습니다. 친절한 사장님께서 장어를 직접 구워주셔서 더욱 맛있게 먹었습니다. 감사합니다.^^/음식도 완전 맛있고, 덥지않게 다른 테이블에서 잘 구워주셔서 맛있게 먹었어요! 셀프바도 다 청결해서 좋았어요! 부모님 데리고 몸보신하러 자주 올 거 같아요/인생장어! 너무 맛있었어요 사장님들도 친절하시고 장어굽는열기로 더울줄알았는데 시원하고 쾌적했어요. 곁들임 반찬과 함께 먹으니 느끼하지 않고 고소하니 맛있었습니다!/좋아요!/몸보신 하면 장어가 가장 먼저 생각나잖아요 ☆彡네이버에 리뷰가 많이 없어서 걱정했었는데 걱정할 필요가 없었습니다..!!! 숨겨진 민물장어의 맛집이 에요!! 더 더워질 여름이 오기전에 몸보신하러 어서들 달려가세요!! 대존맛에 비주얼도 너무 좋고ㅜ 사장님처럼 보였는데 !! 사장님과 직원분들까지 너 무 친절했어요!! 장어 어떻게 굽냐에 따라 또 맛이 다를 수가 있잖아요!! 사장님께서 직접 맛있게 장어를 다 구워주시니까 편하게 먹기만 하면 됩...",/4.37/15개 평점 19명 참여,19
실로암교회카페,커피점/카페,커피전문점/카페/다방,비알콜 음료점업,소사본동,37.4759662103164,126.792431439256,커피점/카페커피전문점/카페/다방비알콜 음료점업,소사본동%20실로암교회카페,https://m.place.naver.com/restaurant/1138407256,경기 부천시 은성로62번길 13 백암빌딩 101호,4.7,"/아빠 환갑 기념으로 떡케이크 주문했는데 너무 예쁘고 예쁜만큼 맛도 있었어요!!💓 단호박설기로 주문했는데 부모님도 많이 안 달고 담백하니 맛있다 고 하셨어요 :) 주인공 아빠 입맛 취향 저격✨ 떡이 촉촉하고 쫀득쫀득하니 씹을때마다 은은한 단호박 단맛이 나서 넘 매력적이더라구요ㅠㅠ 꽃 앙금도 예쁜데 부드럽고 적당한 단맛이 나서 넘 맛있었어요,, 떡이랑 앙금이랑 같이 한 입 먹으면 이 곳이 천국😇 떡케이크 처음 주문해봤는데 너무 만.../친구가 여기 케이크 너무 맛있고 부드럽다고 하길래 언제 한 번 먹어 버려야지 벼르고 있다가... 초코를 좋아하는 친구 생일에 오레오가나슈케이크 주문 했어요 🤤 완전 부드러운 크림 + 찐~한 가나슈 + 오레오 조합 진짜 미친 녀석이에요,,,,,, 저는 이렇게 보들보들 촉촉한 케이크 겨드랑이에 털 나고 첨 먹 어 봐요 🥰 저는 사실 초코를 별로 안 좋아하는 편인데도 이 미친 조합에 정신 놓고 와구와구 퍼 먹었고,,, 초코쟁이인 친구들은 지금까지 먹었던 .../항상 케이크 주문은 스윗하모니에서 해요😍!! 일단 사장님께서 너무 친절하시고 원하는대로 잘 만들어주셔서 올때마다 만족도 최상입니다👍🏻👍🏻 그리구 제가 주문한 케이크는 크림치즈?맛이었는데 케이크 속까지 알차게 맛있었어요 넘 감사합니다 또 방문할게요>_<♥️♥️/기존에 브랜드 카페에 비해 메뉴들이 다들 특색있어서 너무 좋았어요 :-) 특색이 있다고 해서 막 튀거나 독특하지도 않고 너무 맛있게 먹었습니다-! 사장님도 너무 친절하시고 메뉴들도 예쁘게 포장돼서 선물하기도 좋은 것 같아요! 저는 모카케이크랑 로투스케이크 먹었는데, 다음에는 기념일에 주문제작 해보려구요!! 기념일에 선물하기도, 가볍게 먹기에도 다 좋은 것 같아요 :-)/휘낭시에 맛집이에요!!! 레터링케익과 디저트맛집! 꼭 한번씩 가보셔요!!!/케이크 주문했는데 너무 예쁘고 너무 맛있어요!! 다른 디저트도 엄청 맛있어요 케이크나 디저트 별로 안좋아하시는 분들도 여기서 드시면 계속 생각나실거예요ㅠㅠㅠㅠ스윗 하모니 짱❤️❤️❤️❤️/색감도 너무 예쁘고 진짜 맛있어요!! 너무 달지도 않아서 특히 어른분들께 선물하기 좋을 것 같아요!!👍👍 사장님도 짱 친절하시구 최고입니당🥰/원하는대로 케이크 디자인이 예쁘게 나와서 1차 만족, 맛있어서 2차 만족, 가격도 합리적이어서 3차 만족,, 사장님도 친절하셔서 첫 주문 제작 케이크 기분좋게 성공했네요💖 다른 메뉴들도 많던데 다음에 또 주문해야겠어요!! 감사합니다 >,</사장님이 넘 넘 친절하시고 가게도 엄청 청결했어요 >__< 일단 케이크가 넘 예쁘고 .... 딱 제가 원하는 대로 만들어주셔서 완존 만족이에요 ㅠㅠㅠㅠ 다음에 또 주문할게요 ㅎㅎㅎ/🍓딸기찹쌀떡 맛집🍓 딸기찹살떡 먹고 싶으시다면 무조건 스위트하모니! 너무너무 맛있어요ㅜㅜ 지인 추천으로 먹게됐는데 또 주문하려구요♥ 사장님 너무 잘먹었습니다 최고💕💕👍🏻👍🏻 번창하세요~~!!",/4.7/20개 평점 21명 참여,20
사랑방왕돈까스,양식,돈가스전문점,서양식 음식점업,소사본동,37.4799923879122,126.793169395713,양식돈가스전문점서양식 음식점업,소사본동%20사랑방왕돈까스,https://m.place.naver.com/restaurant/1966358552,경기 부천시 호현로 473,4.75,"/완전맛나요/굳/김치찌개는 괜찮아요. 반찬은 돈가스용 반찬이라(흰무절임, 양배추, 깍두기,두부) 백반용으로는 좀 이상하긴 해요/좋아요!/굳/친절합니다/가성비 짱이에요/굿~/ㆍ/맛있어요",/4.75/36개 평점 39명 참여,25
마포주먹고기식당,한식,한식/백반/한정식,한식 음식점업,소사본동,37.4776799597498,126.795252968427,한식한식/백반/한정식한식 음식점업,소사본동%20마포주먹고기식당,https://m.place.naver.com/restaurant/15004596,경기 부천시 소사로 217,4.36,/항상 친절 하시고 고기가 맛있어요 사업 번창하세요.^^/너무 맛있어요/가성비 굿 맛도 굿/언제나 맛있어요/가성비 진짜좋아요ㅎㅎ/좋아요/주인할매 툭툭거리는거 빼고 다 괜찮음/맛있어요/맛있고 친절해요/좋아요,/4.36/157개 평점 160명 참여,63
삼거리순대국식당,별식/퓨전요리,순대전문점,한식 음식점업,소사본동,37.4803983664271,126.793219397924,별식/퓨전요리순대전문점한식 음식점업,소사본동%20삼거리순대국식당,https://m.place.naver.com/restaurant/31619815,경기 부천시 호현로 477,4.57,"/오후 5시경에 고기 삶는다는 풍문을 듣고, 5시 넘겨서 갔는데..머리고기는 기대치에 못 미치네요. 김장김치는 맛 있는데../굿/맛있어요/맛나요/그냥저냥/오늘은 간단하게 술국,머리고기 먹었는데 맛있어요. 담에는 다른 메뉴도 먹어봐겠어요 맛있을것 같아요/고기굿/맛있어요^^/머릿고기 쫄깃하고 맛있어요 순대국은 제 입에는 약간 꼬릿한 냄새가 느껴지긴 했지만 맛있게 먹었어요. 화장실도 가게 안에 있고 시원해요",/4.57/27개 평점 24명 참여,17
페리카나,닭/오리요리,후라이드/양념치킨,치킨 전문점,소사본동,37.4813772168556,126.793780287697,닭/오리요리후라이드/양념치킨치킨 전문점,소사본동%20페리카나,https://m.place.naver.com/restaurant/11800334,경기 부천시 소사로160번길 26-2,4.64,"/저랑 동생 원픽 치킨집!! 결혼하고 다른 지점에서 시킬때도 소사3동 페리카나 잊지 않았어요~ 가게가 안보여서 장사 안하시나 아쉬웠는데 자리 살짝 옮기셨다고 동생이 알려줘서.. 오랜만에 친정 오면서 남편이랑 야식으로 시켰습니다~ 사장님이 기억해 주셔서 감동이고, 맛은 늘 한결 같네요^^ 번창하세요 사장님!/맛있고 가성비 좋고 친절해요./.../ㅋ/페리카나는 소사3점!!!/맛있고 푸짐합니다./친절하고 맛있어서 치킨을 항상 페리카나 소사3분점에서 주문합니다. 우리동네 맛집~/맛있고 친절해서 매번 이용합니다./부천시 최고 치킨집/꾸준히 맛있어요.",/4.64/73개 평점 66명 참여,45
진미식당,한식,한식/백반/한정식,한식 음식점업,소사본동,37.4823084414856,126.789683607091,한식한식/백반/한정식한식 음식점업,소사본동%20진미식당,https://m.place.naver.com/restaurant/1123230382,경기 부천시 경인로 306-10,,,,1
커피비,커피점/카페,커피전문점/카페/다방,비알콜 음료점업,소사본동,37.4807184099082,126.79191401041,커피점/카페커피전문점/카페/다방비알콜 음료점업,소사본동%20커피비,https://m.place.naver.com/restaurant/21161456,경기 부천시 호현로489번길 26,4.27,/오랜만에 와플😋/어머님이 너무 친절하시고 커피도 맛나네요~ ㅎㅎㅎ/굿/맛있어요/탄맛이 나는 아메/친절해요!/😍😍/와플 맛나요~/굿/커피싸고 맛나요,/4.27/44개 평점 40명 참여,12
소머리국밥,한식,해장국/감자탕,한식 음식점업,소사본동,37.4787946454066,126.794997642932,한식해장국/감자탕한식 음식점업,소사본동%20소머리국밥,https://m.place.naver.com/restaurant/1976952964,경기 부천시 소삼로 30,4.32,"/맛있는데 조금 짜요~/ㅎ/굿/굿/대체적으로 짜요 백반집 만원으로 먹기엔 돈이 좀 아깝게 느껴지네요/기본 찬도 많이나오고 무엇보다 맛있어요./굿/완전 숨은 맛집이예요. 친절하신 보라색파마머리 사장님께서 고등어구이에 상추쌈이 최고라고했더니 말없이 싸 먹으라고 쌈장과 상추를 슬그머니 저 희들 상위에 두시면서 지나가면서 ""슬쩍 들었지,!""하시는겁니다 오늘 엄청맛나게 배두드리며 많이 먹었습니다 정말 잘 먹었습니다 ~~ 가격도 엄청저 렴해요/맛있써요.",/4.32/34개 평점 35명 참여,24
연탄불생고기,한식,갈비/삼겹살,한식 음식점업,소사본동,37.4737092345631,126.79818827822,한식갈비/삼겹살한식 음식점업,소사본동%20연탄불생고기,https://m.place.naver.com/restaurant/1895950550,경기 부천시 은성로68번길 34,4.41,/좋아요/친절하시고 음식이 맛있어요./맛나요/맛있어요/맛있어요/'/좋아요/맛잇어요/처음엔 친절하였은나......./고기도 구워주고 맛나요ㅎㅎ,/4.41/33개 평점 32명 참여,11
맛나만두,분식,국수/만두/칼국수,분식 및 김밥 전문점,소사본동,37.4783028700418,126.792721713363,분식국수/만두/칼국수분식 및 김밥 전문점,소사본동%20맛나만두,https://m.place.naver.com/restaurant/1335339622,경기 부천시 호현로 453-1,4.25,/맛나요/굿/맜있어요/늘 맛있어요/좋아요~,/4.25/16개 평점 16명 참여,5
중앙식당,한식,한식/백반/한정식,한식 음식점업,소사본동,37.4791439288071,126.793906638608,한식한식/백반/한정식한식 음식점업,소사본동%20중앙식당,https://m.place.naver.com/restaurant/1614408508,경기 부천시 호현로474번길 24,,/굿/굿/굿/굿/굿/굿/막걸리 먹기좋아요/굿/굿/맛있어요,,10
붐비어,유흥주점,호프/맥주,기타 주점업,소사본동,37.4723521092583,126.79498803337,유흥주점호프/맥주기타 주점업,소사본동%20붐비어,https://m.place.naver.com/restaurant/19258896,경기 부천시 소사로159번길 9,4.06,/굿굿/편하게 먹는 동네술집~/편안함/친절/굿/굿/가격만큼합니다/좋아요/좋아요/굿,/4.06/26개 평점 27명 참여,12
잔치떡집,제과제빵떡케익,제과점,제과점업,소사본동,37.4793976786542,126.794049541044,제과제빵떡케익제과점제과점업,소사본동%20잔치떡집,https://m.place.naver.com/restaurant/37078344,경기 부천시 경인로498번길 26,4.4,/그냥그런데/굿/맛있어요/싸고좋네요/백일떡 좋아요/좋아요/맛있어요/맛있어요/송편 진짜 맛있었어요!,/4.4/92개 평점 78명 참여,19
더벤티,커피점/카페,커피전문점/카페/다방,비알콜 음료점업,소사본동,37.4678772275675,126.79796512769,커피점/카페커피전문점/카페/다방비알콜 음료점업,소사본동%20더벤티,https://m.place.naver.com/restaurant/1196634922,경기 부천시 소사로 102 더벤티 부천소새울역점,4.67,/저렴해서 자주 가요/커피메뉴에 대해 물어봤는데 친절하게 제조법에 대해 설명해주셨어요! 친절하고 커피도 맛있네요 ^^/굿굿 맛있어요/조아요/좋아요/굿/좋아요/양이 많아요/굿/조용하고 한가한 매장! 가성비갑 더벤티! 매장에 손님이 적어서 그런가 영업시간은 20:00시까지로 짧은편,/4.67/131개 평점 100명 참여,51
카페웬디,커피점/카페,커피전문점/카페/다방,비알콜 음료점업,소사본동,37.4801763725062,126.791775755006,커피점/카페커피전문점/카페/다방비알콜 음료점업,소사본동%20카페웬디,https://m.place.naver.com/restaurant/1920610138,경기 부천시 호현로489번길 31-7,,,,1
양가네가마솥영양탕,한식,한식/백반/한정식,한식 음식점업,소사본동,37.4809152227547,126.793538972564,한식한식/백반/한정식한식 음식점업,소사본동%20양가네가마솥영양탕,https://m.place.naver.com/restaurant/19258256,경기 부천시 호현로 477,,"/간만에 몸보신/고기가 엄청 맛있어요, 따로 삶아서 넣은 것 같아요 고사리같은것도 잔뜩 들어있구 국물도 맛있구 다 맛있네요 밑반찬도 전부 직접 하신것같아요/좋아요~",,3
김파퍼베트남쌀국수,양식,기타전문서양음식점,서양식 음식점업,소사본동,37.478138526582,126.797812079821,양식기타전문서양음식점서양식 음식점업,소사본동%20김파퍼베트남쌀국수,https://m.place.naver.com/restaurant/1967909465,경기 부천시 소삼로 46 드림타워,4.37,"/우연히 와봤다가 꾸준히 오는곳이에요! 찐베트남맛에 양도많고 가격이 정말 합리적이에요 보통 한국에서 베트남음식 터무니없는가격이 대부분인데 여 기는 그렇지 않아서 좋아요 !! 맛은 가정식 베트남음식 느낌으로 질리지않고 맛있어요 ㅎㅎ 불친절하지도 않고 이 가성비에 친절한 대접까지 바라면 욕 심이에요 ;;/바쁘신지 친절은 없었지만, 지인추천으로 가본건데 고기도 꽤 많이 들어있었고 맛있게 먹었어요. 다음엔 다른메뉴들도 맛보고 싶어요./비엣남 ㅇㅅㅇ/굳 맛집/조아요/굿/긋/굳 맛집/맛나요/맛잇어요",/4.37/152개 평점 139명 참여,83
이모네포차,유흥주점,소주방/포장마차,기타 주점업,소사본동,37.4787600138051,126.793370114586,유흥주점소주방/포장마차기타 주점업,소사본동%20이모네포차,https://m.place.naver.com/restaurant/1396847876,경기 부천시 소삼로 4,,/이모네포차 정말 맛있어요/좋아요/맛있어요/좋아요/ㄱㅅ,,5
놀부빈대떡,유흥주점,호프/맥주,기타 주점업,소사본동,37.479661922965,126.795221147148,유흥주점호프/맥주기타 주점업,소사본동%20놀부빈대떡,https://m.place.naver.com/restaurant/21146418,경기 부천시 소사로 239,4.33,"/일주일만에 재방문!! 사장님 무뚝뚝한듯 친절하시고 메뉴 다 맛있어요!! 동네 맛집!! 조만간 또 방문할께요!!/녹두빈대떡 크고 맛있어요!! 가성비 짱!! 황칠막걸리 파는 곳 처음 봄!!/감자전 맛있어요!! 강추!!/직접 갈아서 해주시는 감자전, 두툼하고 맛있는 녹두 빈대떡, 옛날 학사주점을 추억할수 있는 인테리어, 학창시절 늘 들었던 7080가요,올드팝 모든게 다 좋아요~ 단골각입니다/맛있어요 친절해요/좋아요/굿/맛있어요/굿/맛나요",/4.33/23개 평점 24명 참여,10
친구네정육식당,한식,갈비/삼겹살,한식 음식점업,소사본동,37.4769859266599,126.795230193062,한식갈비/삼겹살한식 음식점업,소사본동%20친구네정육식당,https://m.place.naver.com/restaurant/1807177968,경기 부천시 소사로 209-1,4.35,/늘 맛있게 먹는 곳. 양 많은 삼겹살에 무한된장찌개는 사랑입니다. 셀프바도 참 좋아요^^/양많고 맛있으면 끝아닌가요/좋아요/싸고 양만고 맛있었어요/굿/동네 단골 식당이에요~ 늘 친절하신 사장님. 기본이 300g 인 가성비 좋은 곳입니다./굿/가격 대비 짱이/제 단골집 ㅠㅠ/굿,/4.35/93개 평점 94명 참여,57
명태어장,한식,한정식전문,한식 음식점업,소사본동,37.4734815685108,126.795297754394,한식한정식전문한식 음식점업,소사본동%20명태어장,https://m.place.naver.com/restaurant/1416915616,경기 부천시 소사로 171,4.33,/시레기명태조림 맛있어요!! 매콤하게 해달라고 하면 더 맛있어요~~/사장님 엄청 친절하시고 밑반찬 너무 맛있어요/굿/맛있어요/00/굳/좋아요/언제 가고 친절하신 주방 이모님 ./...,/4.33/57개 평점 61명 참여,18
사랑채,한식,한식/백반/한정식,한식 음식점업,소사본동,37.4807376992138,126.792038070652,한식한식/백반/한정식한식 음식점업,소사본동%20사랑채,https://m.place.naver.com/restaurant/1860248400,경기 부천시 호현로489번길 22,4.03,/찌개 반찬ㄷ 그냥 그렇고. 김밥 진짜 맛없어요 ㅠ/김밥은 너무 성의가 없네요/급하게 구입했는데 김밥 참 맛있네요^ㅡ^ 맛있게 잘 먹었습니다/김밥에서 약간 쉰내가 났어요; ㅠ/👍/괜찮아요/굿/굿/병원가느라 잠깐 들렸는데 음식이 맛있고 친절하시네요~!/좋아요,/4.03/56개 평점 67명 참여,42
소소한사치,기타음식업,고속도로휴게소,그외 기타 음식점업,소사본동,37.479964749469,126.795758988475,기타음식업고속도로휴게소그외 기타 음식점업,소사본동%20소소한사치,https://m.place.naver.com/restaurant/1592372044,경기 부천시 호현로 489 1층 카페 소소한사치,4.51,"/갈 때마다 기분 좋은 카페♡ 사장님도 넘 친절하시고 무엇보다 커피가 맛있어요. 매일 마시기엔 부담돼서 프랜차이즈커피 이용하다가 한번쯤은 진짜 맛있는 커피 땡길때 가요. 원두도 신선하고 우유도 고소하고 2~3000원대 싼 커피랑 확실히 퀄리티가 차이 납니다. 매장은 다소 작아서 테이크아웃 거의 하눈 편이구요. 마샬 스피커가 멋스럽네요^^ 브라운슈페너는 처음 마셔봤는데 넘 맛있어요./당근케익이 달지 않아서 좋아요/ㅎ/친절해요/자몽주스(?) 맛있어요 커피도 최고에요/지인이 동네에 놀러와 커피 마시고 집에서 마실 원두 구입했어요 우선 매장과 머신이 깨끗하고 한 잔 한 잔 정성스럽게 커피 준비하는 과정이 다 보여 서 기다릴 때 역시 기분이 좋아요 물론 커피도 최고에요. 오늘은 카페라떼,플랫화이트 마셨는데 드립커피 마시고 싶은 날엔 선택할 수 있는 원두 종류 가 다양해 선호하는 커피를 마실 수 있어요. 집에서 커피 내리려고 원두도 종종 구입하는데 로스팅 한지 얼마 되지 않아 신선하고 원두 상태도 깨.../크림슈패너 넘나 맛있어요!!!/로스터리 카페를 3년정도 운영을 해서 손님의 입장으로 카페를 가면 그 카페 사장님이 얼마나 고민을 하는 지, 얼마나 노력하시는 지, 얼마나 열심히 하 시는 지 느껴지는데 소소한 사치는 부천 소사동,소사본동에서 제일 열심히 하고 제일 맛있는 커피전문점 같습니다. 커피 한 잔에 행복을 느끼고 싶으시 다면 소소한 사치로 오세요!!",/4.51/41개 평점 35명 참여,22
카페정담,커피점/카페,커피전문점/카페/다방,비알콜 음료점업,소사본동,37.4801521103158,126.791165602833,커피점/카페커피전문점/카페/다방비알콜 음료점업,소사본동%20카페정담,https://m.place.naver.com/restaurant/1967024146,경기 부천시 호현로489번길 45-1 2층 정담,4.66,/사장님이 친절하고 집중하기 좋습니다^^ 이번에 라떼류 먹어봤는데 꽤 괜찮아요!!/❤️❤️❤️❤️/디저트가 너무 맛있어요 💕💕💕 녹차통마늘쿠키 궁금해서 사봤는데 달콤한 마늘향까지 존맛탱 정담시그니처 쿠키! 세종병원 병문안갈때 여기서 디저트사갔는데 넘 맛있다고 좋아해요 ㅎㅎ 담엔 레터링 케이크도 주문하려구요/좋아요/좋아요/음료와 수제쿠키 너무 맛있어요~♥ 사장님 너무 친절하고 편안한 카페라서 참 좋아요./😇🙏🏻/직접 만드시는 수제쿠키와 수제디저트 너무 맛있어요! 다음에도 또 갈거에요. 감사합니다./정담은 사랑입니다 😌/최애 카페♥️,/4.66/41개 평점 34명 참여,17
오가네소머리국밥,한식,해장국/감자탕,한식 음식점업,소사본동,37.4802089482822,126.793199831666,한식해장국/감자탕한식 음식점업,소사본동%20오가네소머리국밥,https://m.place.naver.com/restaurant/1842624903,경기 부천시 호현로 475,,/맛있어요/국물도 진하고 맛있어요/맛있게 잘 먹었습니다~,,3
소사순대,별식/퓨전요리,순대전문점,한식 음식점업,소사본동,37.4797564198325,126.793885487326,별식/퓨전요리순대전문점한식 음식점업,소사본동%20소사순대,https://m.place.naver.com/restaurant/1886805006,경기 부천시 은성로 66 1층 101호,,"/예전보다 안에 내용물이 적어요 안에 다대기를 넣어주는것도 별로고 맛은 비슷한데 가성비가 웬지 떨어지는 느낌이네요/첫방/굿/굿굿/좋아요/굿/좋아요/최악. 생애 첨 네이버 리뷰 달게 만들 정도로 최악.2인분을 포장했다. 먹으려니 들깨가루는 한봉 부추도 한봉. 무엇보다 깍두기가 3개 들어있다. 내가 1 인분을 포장했나 싶어 명세서를 봤는데 15000원. 2인분이 맞다. 내가 잘못 받은 건가 싶어서 전화를 걸었다. 나:""죄송한데 포장 잘못 주신 거 같아요."" 사장왈: ""원래 그렇게 나가요."" 1인당 깍두기 1.5개만 먹으라는 건가 싶어 되물었더니. 사장왈: ""하아 지금까지 깍두기 양으로 클레임 건 손님 아무.../좋아요/맛이 일품~",,37
기분좋은커피,커피점/카페,커피전문점/카페/다방,비알콜 음료점업,소사본동,37.4742835939017,126.795307491282,커피점/카페커피전문점/카페/다방비알콜 음료점업,소사본동%20기분좋은커피,https://m.place.naver.com/restaurant/1539049144,경기 부천시 소사로 179,4.61,/사장님께서 늘 친절하시고 음료도 디저트도 맛있습니다 디저트를 사장님께서 아마 직접 만드시는 것 같은데 브라우니가 정말 맛있움~~/사장님 친절하고 스콘맛있어요/맛있어요/좋아요/사장님이 직접구운 스콘에 직접 로스팅한 원두~시원한 카페에서 아아한잔과 스콘은 힐링이네요~ 콜드브루 더치도 사왔는데 집에서 아아로 딱입니다~ 완전 강추입니다./사장님이 직접 구운 스콘이 진짜 맛있어요. 브라우니.초코쿠키 또한 굿! 또 사가요~ 대박나세용^^/카페라떼 고소하고 맛있어요! 사장님도 친절하시고 맛있는데 양도 많아요!^^b/친절하게 대해주셔서 감사합니다 잘 먹겠습니다💛/맛나요/맛있고 친절하십니다 가성비 좋은 곳이에요,/4.61/55개 평점 49명 참여,27
영광한식부페,부페,한식부페,한식 음식점업,소사본동,37.4759684942082,126.795303055678,부페한식부페한식 음식점업,소사본동%20영광한식부페,https://m.place.naver.com/restaurant/1407533759,경기 부천시 소사로 174-1,,,,empty
셀렉토커피,커피점/카페,커피전문점/카페/다방,비알콜 음료점업,소사본동,37.4807027063418,126.793022293708,커피점/카페커피전문점/카페/다방비알콜 음료점업,소사본동%20셀렉토커피,https://m.place.naver.com/restaurant/1223891977,경기 부천시 호현로469번길 25 1층 2층,4.45,/친절하시고 공간도 공부하기 좋아요 : ) 음료 모두 맛있었어요👍🏻/넓어서 좋네요 분위기도 조용한편이에요/스페셜 블랜드 좋아요~/#휴가#점심#영어수업#자몽티/굿~/굿/가성비좋고 맛있어요/가격대비 맛있어요/친절해서 기분 좋아요/자몽 에이드맛있어요,/4.45/128개 평점 79명 참여,46
투썸플레이스,커피점/카페,커피전문점/카페/다방,비알콜 음료점업,소사본동,37.4694974936818,126.796921754161,커피점/카페커피전문점/카페/다방비알콜 음료점업,소사본동%20투썸플레이스,https://m.place.naver.com/restaurant/1587830942,경기 부천시 경인로 386,4.33,/가까워서 좋아요/넓어서 좋아요/매장 크고 넓어서 좋네요/같이먹은사람이맛있다고하네요/투썸이야 머 ㅎㅎ/굿/굿/굿/친절하고 좋습니다,/4.33/532개 평점 487명 참여,197
양사부쿵푸짬뽕,중식,중국음식/중국집,중식 음식점업,소사본동,37.4795054278344,126.794895778448,중식중국음식/중국집중식 음식점업,소사본동%20양사부쿵푸짬뽕,https://m.place.naver.com/restaurant/1166112658,경기 부천시 소삼로15번길 18,4.35,/또 왔어용 맛있게 잘 먹고 갑니다~ 속이 더부룩하지않아서 좋아요~ 가족단위 추천!/동네에 괜찮은 중국집이 생겨서 좋네요. 매장도 깔끔하고 음식도 더부룩하지 않아 좋습니다. 소사쪽 사는 분들이라면 가족들과 가보세요. 저는 탕슉도 제 취향이었습니다. 대단한 기교를 부리는 음식이 아니지만 기본에 충실해서 넘 맛나는! 동네맛집❤️/탕수육이 진짜 맛잇어요/소사역4번출구에서 7분정도거리..움식 짱/맛있어요/짬뽕이 진짜 불맛이 나서 얼큰하고 맛있어요 ㅋㅋㅋ/굿/ㅅㅅ/항상 너무 맛있어요! 단골입니다!/굿,/4.35/161개 평점 143명 참여,78
육회한통닭,닭/오리요리,후라이드/양념치킨,치킨 전문점,소사본동,37.4805917098673,126.793623319332,닭/오리요리후라이드/양념치킨치킨 전문점,소사본동%20육회한통닭,https://m.place.naver.com/restaurant/1093339001,경기 부천시 호현로 480 1층,4.43,/육회랑 주먹밥 주문해서 먹었는데 맛있게 잘 먹었습니다!!ㅎㅎ 한 가지 아쉬운 점은 주문할 때 메뉴에는 소고기 국물을 같이 준다고 적혀 있었는데 소고기 국물이 없어서 조금 아쉬웠습니다ㅠㅠ/굿/너무 맛있어요 쫄뱅이최고/굿/좋아요/쫄뱅이최고/굿/굿/좋아요~/고기신선해요.우리시킨건 육회치킨세트3만원입니다. 저렴한 10800아니에요.혹시 주문할때 오해하지마시길,/4.43/96개 평점 95명 참여,67
카페노랑,커피점/카페,커피전문점/카페/다방,비알콜 음료점업,소사본동,37.4816753543575,126.797393601315,커피점/카페커피전문점/카페/다방비알콜 음료점업,소사본동%20카페노랑,https://m.place.naver.com/restaurant/1757313670,경기 부천시 경인로 376 부성파인 오피스텔 1층,4.3,"/무난무난한 까페./- 아인슈페너 5,000원 - 깔라만시 레몬 에이드 5,000원 맛있어요. 카페가 공간이 넓지는 않으니 참고하세요~/ᆢ/.././ㆍ/커피 잘 마셨어요~ 매장이 깨끗하네요~/커피 맛있어요~/좋아요/시큼한 아메리카노 싫어하는데 이건 시큼해도 풍미가있는거같아요 맛있어요 삼천원정도면 괜찮은듯..",/4.3/27개 평점 31명 참여,20
반올림피자샵,패스트푸드,피자전문,"피자, 햄버거, 샌드위치 및 유사 음식점업",소사본동,37.4750192253616,126.800304055742,"패스트푸드피자전문피자, 햄버거, 샌드위치 및 유사 음식점업",소사본동%20반올림피자샵,https://m.place.naver.com/restaurant/1456386849,경기 부천시 은성로 86,4.4,/맛있어요❤️/좋아요./항상 맛있습니다/굿/가격대비 구성이알차고 맛있어요/맛있어용/처음먹어봤는데 맛있어요!!!/맛있었어요/ㅅ,/4.4/226개 평점 207명 참여,72
김밥천국,분식,라면김밥분식,분식 및 김밥 전문점,소사본동,37.481688488404,126.792497639693,분식라면김밥분식분식 및 김밥 전문점,소사본동%20김밥천국,https://m.place.naver.com/restaurant/19258388,경기 부천시 호현로 495,4.16,/김밥 맛있는 김천./가볍게 포장해서 먹기 좋았습니다 맛도 있어요/🫶🏿/손이 너무 느리세요ㅠㅠ답답.. 그래도 맛있어요/굿/맛있어요/좋아요/굿/맛있어요~~/굿,/4.16/201개 평점 176명 참여,70
시골즉석손두부,한식,두부요리전문,한식 음식점업,소사본동,37.4794491933674,126.793799975706,한식두부요리전문한식 음식점업,소사본동%20시골즉석손두부,https://m.place.naver.com/restaurant/35949249,경기 부천시 호현로474번길 18,4.28,/굿/맛있어요/ㅎ/조아요/조히/좋아요/좋아요/조아요/좋아요/두부가 맛있어요,/4.28/150개 평점 88명 참여,112
쿠웨이트떡볶이,분식,떡볶이전문,분식 및 김밥 전문점,소사본동,37.469565562371,126.795643225421,분식떡볶이전문분식 및 김밥 전문점,소사본동%20쿠웨이트떡볶이,https://m.place.naver.com/restaurant/1118472800,경기 부천시 소사로125번길 15 1층,4.63,/좋아요/맛있게먹었어요./쫄면 김밥 맛있습니당~!/맛있어요^^/ㅅㄷㅇㄱ/시그니쳐 메뉴 분모자떡볶이 강추에요!/맛있어요/#떡볶이는 짱 맛 #튀김은 느끼해요ㅠㅠ/기대보다 너무 맛있었어요!/맛있을거 같아요 ㅎㅎ,/4.63/32개 평점 29명 참여,10
Hocoffee,커피점/카페,커피전문점/카페/다방,비알콜 음료점업,소사본동,37.481092393617,126.794124061413,커피점/카페커피전문점/카페/다방비알콜 음료점업,소사본동%20Hocoffee,https://m.place.naver.com/restaurant/37069466,경기 부천시 경인옛로22번길 8,4.22,/친절해서 좋았어요/굿/굿/좋아요/ㅈㅇㅇ/굿/좋아요/좋아요/굿/ㅈㅇㅇ,/4.22/58개 평점 51명 참여,25
보원,별식/퓨전요리,사철탕전문,한식 음식점업,소사본동,37.4787254789071,126.793517649691,별식/퓨전요리사철탕전문한식 음식점업,소사본동%20보원,https://m.place.naver.com/restaurant/1030632353,경기 부천시 소삼로 6,4.43,/맛은 좋은데 올해가격이 2번이나 올랐네요/3차백신 맞고 미열나고 입맛없어서 오빠가 영양탕 사줬어요~/맛있어요/탕이 정말 맛있어요. 안받으면 후회할뻔!/염소탕이 냄새 안나고 맛있었어요/가격이 좀 비싸네요 ㅠ.ㅠ/조아요/담백하니 맛이 좋아용/굿/이번중복에아부지랑또한번방문했네요 매운거잘못드시는데 얼큰하면서도깔끔하다며엄청좋아하셨어요 아버지가다음에또드시고싶다고하셔서어찌나 기쁘던지 덕분에효도한기분까지들어서좋네요,/4.43/74개 평점 59명 참여,21
시골영양탕,닭/오리요리,삼계탕전문,한식 음식점업,소사본동,37.477032150719,126.792696933483,닭/오리요리삼계탕전문한식 음식점업,소사본동%20시골영양탕,https://m.place.naver.com/restaurant/99282753,경기 부천시 호현로 440-1,4.04,/별로네요/굿,/4.04/12개 평점 12명 참여,2
시골영양탕,닭/오리요리,삼계탕전문,한식 음식점업,소사본동,37.4805329060055,126.794924501887,닭/오리요리삼계탕전문한식 음식점업,소사본동%20시골영양탕,https://m.place.naver.com/restaurant/99282753,경기 부천시 호현로 440-1,4.04,/별로네요/굿,/4.04/12개 평점 12명 참여,2
파리바게뜨,제과제빵떡케익,제과점,제과점업,소사본동,37.4796031568722,126.792994755664,제과제빵떡케익제과점제과점업,소사본동%20파리바게뜨,https://m.place.naver.com/restaurant/19258625,경기 부천시 소사동로 82 센트럴프라자 105호,4.34,"/샐러드 가성비가 좋아요.. 케이준샐러드 고기도 꽉꽉, 채소도 꽉꽉 담겨있어요 치킨 이렇게 주는 곳 못 본 듯해유!! 정량이 따로 없는지 의문도 드네요! 가늘게 썬건지 정량보다 더 주시는건지는 잘 모르겠지만 채소 우적우적 먹다보면 여기 지점의 제품은 치킨텐더가 밑에서 돌아다녀요 ㅋㅋ 체감상은 치킨텐더가 다른지점의 2배인데 원효대사 해골물이었다면 뭐 어쩔 수 없죠../맛있게 잘 먹었어요~~/가끔씩 갑니다/급하게 케이크 사야해서 들렀네요/빵이 신선해요/굿/집 근처 두 곳의 파리바게뜨 중에서 '소사주공' 지점이 빵 종류도 많고, 샌드위치와 샐러드 종류도 많이 만들어 놔서 구매하기 편해요 :)/빵도 다양하고 맛있어요/항상 친절하고 좋아요. 진열도 잘 되어 있어 편리해요/자주가요~ 앙금빵 맛있어용","/4.34/1,017개 평점 599명 참여",427
이디야커피,커피점/카페,커피전문점/카페/다방,비알콜 음료점업,소사본동,37.4801992366657,126.791368358008,커피점/카페커피전문점/카페/다방비알콜 음료점업,소사본동%20이디야커피,https://m.place.naver.com/restaurant/1859138563,경기 부천시 소사로282번길 8,4.54,,/4.54/452개 평점 382명 참여,242
월드대박,한식,한식/백반/한정식,한식 음식점업,소사본동,37.4787600138051,126.793370114586,한식한식/백반/한정식한식 음식점업,소사본동%20월드대박,https://m.place.naver.com/restaurant/1452137309,경기 부천시 소삼로 4,4.36,/좋아요/ㆍ/ㆍ/굿/굿/굿/굿/좋아요/좋아요/굿,/4.36/67개 평점 61명 참여,28
행복한포차,유흥주점,소주방/포장마차,기타 주점업,소사본동,37.4812880239363,126.795635991518,유흥주점소주방/포장마차기타 주점업,소사본동%20행복한포차,https://m.place.naver.com/restaurant/1294807838,경기 부천시 부일로449번길 40,4.61,/계란말이 깻잎닭도리 오삼불고기 존맛탱👍/깻잎닭도리탕이랑 감자전 대존맛../대체적으로 안주가 푸짐함/굿/굿/좋아요/😀/굿/치즈계란말이 맛있움,/4.61/87개 평점 92명 참여,34
빵나라빵마을,제과제빵떡케익,제과점,제과점업,소사본동,37.4796488898273,126.793943747147,제과제빵떡케익제과점제과점업,소사본동%20빵나라빵마을,https://m.place.naver.com/restaurant/1161387627,경기 부천시 호현로474번길 13-2,,,,1
강호동치킨678,닭/오리요리,후라이드/양념치킨,치킨 전문점,소사본동,37.4797188060013,126.797266672132,닭/오리요리후라이드/양념치킨치킨 전문점,소사본동%20강호동치킨678,https://m.place.naver.com/restaurant/31215927,경기 부천시 소삼로 47 부천소사역 푸르지오,4.51,/고추장사치킨 맛있게 잘먹었습니다 조금더매우면 하는 아쉬움은 있네요/치킨이 매콤하고 맛있었어요/좋아요 요/네이버 주소가 잘못 나와 있어서 방문시 매장에 전화해서 위치 확인 해야 해요/가격대비 조아용 골뱅이 짱/치킨을 잘못튀기면 기름이 줄줄.그리고 느끼하거든요. 요기 치킨은 바삭하고 느끼하지 않은 아주 깔끔 그맛 자체 최곱니다. 자꾸자꾸 시켜먹고 싶은 맛입니다. 지난번 친구들과 사먹었는데 넘 맛있어서 그자리에서 한마리 더 시켜서 먹었답니다. 돈은 덕분에 많이 나왔지만요 먹는동안 행복했어요. 사람이 왜 많이 방문하는지 알았습니다. 자주 사먹는데 이번엔 감사뜻으로 리뷰 남겨요./굿/맛있어요/맛있어요/집앞 상가치상가인데 손님두 늘 많고 사장님이 친절하시고 우선 치킨이 맛나욤,/4.51/173개 평점 106명 참여,78
우정식당,한식,한식/백반/한정식,한식 음식점업,소사본동,37.4805062334134,126.791431251312,한식한식/백반/한정식한식 음식점업,소사본동%20우정식당,https://m.place.naver.com/restaurant/1225254978,경기 부천시 호현로489번길 38,3.61,/인생 최악의 식당일듯/다신가고싶지 않은식당/굿/깍두기랑 김치 맛이 별로/맛있었는데 정말 비위생적입니다. 병원 방문으로 가장 가까운 곳으로 갔는데 사장님은 담배피다가 턱스크하고 음식 만드시고 두분다 계속 턱스크 상태로 고기 자르시고 대화하시더라구요 물병 재사용하시는거 같은데 참고로 유통기한이 20년3월로 되어있으니 오래 사용하신거겠죠?/너무 비위생적이에요ㅠ 먹는 음식인데 깨끗하게좀 하시면 좋겠어요/맛있어요/좋습니다/좋아요./좋아요,/3.61/53개 평점 60명 참여,20
서신분식,분식,라면김밥분식,분식 및 김밥 전문점,소사본동,37.4812715363764,126.792255606514,분식라면김밥분식분식 및 김밥 전문점,소사본동%20서신분식,https://m.place.naver.com/restaurant/15005802,경기 부천시 호현로497번길 20-2,,/굳,,1
바비큐,닭/오리요리,후라이드/양념치킨,치킨 전문점,소사본동,37.4772388681881,126.795293967661,닭/오리요리후라이드/양념치킨치킨 전문점,소사본동%20바비큐,https://m.place.naver.com/restaurant/31609052,경기 부천시 소사로 243,4.32,/한식바비큐가 젤 맛있어요/😀/많이파세요/좋아요/ㅒ/그럭저럭 괜춘 괜춘/맛있어요/./서울 지점보다 가격이 더 싸요~ 완전 맛있어요~^^/좋아요,/4.32/51개 평점 53명 참여,13
시골식당,한식,한식/백반/한정식,한식 음식점업,소사본동,37.4805329060055,126.794924501887,한식한식/백반/한정식한식 음식점업,소사본동%20시골식당,https://m.place.naver.com/restaurant/1849759375,경기 부천시 소사로 257,4.42,"/우리동네 이런 밥집이 있다는게 너무 좋아요! 사장님도 너무 친절하시고 잘해주셔요, 아이들도 이뻐해주시구요😍 6천원에 집밥보더 집밥같고 푸짐하 고 맛있게 먹을수 있는 곳이예요.정과 인심은 덤이구요😭 진짜 단점이 없는 찐맛집입니다. 사장님 늘 잘먹고 갑니다.감사해요♥/왜 이제야 알게 됐는지... 레알 맛집/굿/와 이런곳이!!!! 진짜 너무 맛있어요 단골됩니다 가성비최고 백반!!!!!/굿/간단히 백반먹기 좋아요/좋아요/맛있어요~~/맛있어요/맛있어요 사람 많습니다^^",/4.42/42개 평점 43명 참여,23
배진화옛날통닭,닭/오리요리,후라이드/양념치킨,치킨 전문점,소사본동,37.471484524033,126.797387327335,닭/오리요리후라이드/양념치킨치킨 전문점,소사본동%20배진화옛날통닭,https://m.place.naver.com/restaurant/1798335246,경기 부천시 소사로148번길 31,4.4,/ㅎ/딱 옛날통닭 맛이라 가끔 생각날 때 먹기 좋아요/굿/배진화통닭 처음 먹어보는데 너무 맛있었어요!사장님도 친절하시구 메뉴도 다양해요ㅎㅎ조만간 재방문할게요!/바삭하고 너무 맛있어여 가성비 무엇 ㅋㅋㅋㅋㅋㅋ최고의 치킨집/우리동네 찐맛집/맛있어요/저렴한 맛에 먹어요! 약간 오버쿡되었지만 짭조름하고 바삭해요!/싸고 맛있어요/맛있어요,/4.4/26개 평점 26명 참여,10
크리스마스자몽,커피점/카페,커피전문점/카페/다방,비알콜 음료점업,소사본동,37.4783022585209,126.790019572427,커피점/카페커피전문점/카페/다방비알콜 음료점업,소사본동%20크리스마스자몽,https://m.place.naver.com/restaurant/1569929289,경기 부천시 호현로489번길 52,,,,empty
복죽,별식/퓨전요리,죽전문점,한식 음식점업,소사본동,37.4797033754578,126.795751877013,별식/퓨전요리죽전문점한식 음식점업,소사본동%20복죽,https://m.place.naver.com/restaurant/38502262,경기 부천시 소사로 240,,,,9
젬마커피,커피점/카페,커피전문점/카페/다방,비알콜 음료점업,소사본동,37.4817760214901,126.794893229388,커피점/카페커피전문점/카페/다방비알콜 음료점업,소사본동%20젬마커피,https://m.place.naver.com/restaurant/1989058954,경기 부천시 경인옛로 25 한신더휴메트로 상가 지상 124호,4.78,"/우리동네 바스크치즈케이크맛집!! 정말 정말 맛있어요!! 치즈류 디저트는 안좋아하는데 젬마가면 무조건 바치케 먹습니다ㅎㅎㅎ 사장님도 친절하시고 아담하지만 분위기도 이뻐요~~~♥ 르뱅쿠키도,스콘류도 맛있지만 바치케! 완전 강추합니다./소사역에서 가까운 상가에 있어서 방문하기 좋았어요. 손님이 많아서 못찍었지만 인테리어도 따듯한 느낌으로 너무 예뻐요. 커피는 두가지 중에 원두 선택할 수 있어서 취향이 다른 사람끼리 가도 좋을것같네요. 남편이 뭐 맛있다는 소리 잘 안하는데 여기 치즈케이크 엄청 맛있대요 ㅎㅎ 마지막으로 사 장님 넘 친절하심. 재방문하고 싶은 곳이에요./아기자기하고 분위기 좋아요! 조용히 책 읽기 좋아요!/테이블이 많지는 않지만 맛과 분위기가 좋았어요 원두도 선택할 수 있는데 산미 있는 라떼가 생각보다 괜찮았어요 프랜차이즈에서 먹는 바닐라라떼는 특유의 쨍한 맛이 있는데 여기는 바닐라빈으로 직접 제조하셔서 진짜 맛있었어요.. 스콘도요,, 그리고 재즈 선곡도 좋아서 경쾌하지만 가볍지 않으면서 무겁지도 않은 이 카페 특유의 느낌이 좋아요 여유에 잔잔히 스며드는게 묘하고 소중한 느낌의 카페 같았어요 잘 머물다 가요💓/일요일에 못가서 아쉬운 우리동네 디저트맛집... 조용하고 인테리어도 너무 예쁘고 사장님두 친절하셔요!/재방문인데 좋아요/커피맛두 굿~인테리어도 감각있어요^^/정말 디저트가 맛있는 카페예요~~ 사는곳이 소새울역 부근이라 자주 못가지만 바스크치즈케이크도 르뱅쿠키도,스콘도 너무 맛있는 곳이이예요~~~ 사 장님도 친절하시고 넓진않지만 분위기도 모던하고 이쁘고 손에 꼽히는 맛집이예요♥ 오늘도 잘먹고갑니다~~~/인테리어 멋진 곳 갈릭크로와상 진짜 맛있어요/커피맛있고 친절하신 사장님 💕",/4.78/78개 평점 63명 참여,46
빙하시대,한식,냉면집,한식 음식점업,소사본동,37.479782282675,126.794653899762,한식냉면집한식 음식점업,소사본동%20빙하시대,https://m.place.naver.com/restaurant/1606396107,경기 부천시 부천로86번길 64,4.52,/맛있어요/시원하고 맛있어요.,/4.52/22개 평점 22명 참여,2
진담,커피점/카페,커피전문점/카페/다방,비알콜 음료점업,소사본동,37.4756940340476,126.801095972016,커피점/카페커피전문점/카페/다방비알콜 음료점업,소사본동%20진담,https://m.place.naver.com/restaurant/1311348194,경기 부천시 소안로 10,,/핫바닐라라떼 감기기운 있을 때 마셨는데 정말 맛있었어요/커피 맛있어요/커피가 맛있어요/텀블러는 200원 할인해주십니다 라떼가 맛있는 카페 크림라떼 마셔봤는데 크림도 맛있었어요 에그타르트도 1500원인데 맛있어요/커피맛이 좋으네요^^/청귤에이드 맛있었어요 상큼하니/굿굿/좋아요/사장님께서 일일이 취향 기억하시고 서비스도 챙겨주셔서 자꾸 감동/인테리어 이쁘고 편안해요~ 커피도 👍,,42
카페무홀,커피점/카페,커피전문점/카페/다방,비알콜 음료점업,소사본동,37.4724536260391,126.800537254591,커피점/카페커피전문점/카페/다방비알콜 음료점업,소사본동%20카페무홀,https://m.place.naver.com/restaurant/1777936747,경기 부천시 소사로160번길 90 1층,,"/매일 퇴근 후 이곳에서 커피& 디저트를 구매하는것이 루틴이 되어버렸네요 ^^ 아메리카노가 정말 꼬소합니다. 원두가 정말 신선하게 관리되고 있는것 같아요. 특히 그 끝맛의 꼬숩하고 찐한 후미가 너무 좋아요 .. 너무 고급스러운맛.. :) 곁들어 먹을 수 있는 베이커리 스콘도 너무 감칠맛 나네요..ㅎㅎㅎ ㅎ 음료랑 같이 먹다보면 식욕이 땡기는 기분좋은 느낌?ㅎㅎ 별거 아닐수도 있지만 포장할때마다 참 행복합니다 ^^/매장 자주방문하는데 오늘은 포장 주문했어요! 커피맛도 좋구 넘 더워서 썸머라떼 주문햇어영~ 시원하고 달달하니 최고에요👍🧡/알게되고 범박동에서부터 오고있어요! 진짜 공간 너무 이쁘고, 메뉴들 하나하나 다 맛있어요. 소문 많이내고 자주 올게요:)!!/작은카페지만~커피맛 좋구 디저트종류가 약간 아쉽지만~~/연남동에 있을거 같은 멋진카페가 우리동네에 있어서 좋아요☕️/커피맛이좋아요~/커피도 맛있고 매장이 깔끔해요/맛있어요!!/카페가 조용해서 좋았습니다.",,31
돈우네정육식당,한식,기타고기요리,한식 음식점업,소사본동,37.4815241341814,126.793167371642,한식기타고기요리한식 음식점업,소사본동%20돈우네정육식당,https://m.place.naver.com/restaurant/1824141676,경기 부천시 호현로 488 1층 정다운그린빌 117호,4.74,/맛있다는 느낌은 못받았어요 싱겁달까.. 그냥 고기먹는느낌이였어요/테이블 사이의 거리도 넓은편이고 음식도 맛있어서 좋았어요!!/고기도 저렴하고 사이드도 맛나요! 새로생긴 매장이라 그런가 깨끗하고 좋습니당!/가격도 넘 착한데 ㅠ 고기도 신선하고 푸짐하게 배터지게 먹고갑니당 !! 계란찜 된장찌개 서비스도 넘 좋어요 ㅠㅠㅠㅠ 다음에 또 올게용!!!!/계란찜이랑된장맛이애매한맛 걍그랬음/가성비가 넘치고 대표님이 친절하십니다. 긍정적인 기운을 받아갑니다/사장님 친절하고 고기도 맛있어요^^/소고기 저렴하고 맛있게 즐기실수 있는곳입니다./좋아요,/4.74/54개 평점 39명 참여,27
쌍둥이베트남쌀국수,별식/퓨전요리,동남아음식전문점,기타 외국식 음식점업,소사본동,37.4815241341814,126.793167371642,별식/퓨전요리동남아음식전문점기타 외국식 음식점업,소사본동%20쌍둥이베트남쌀국수,https://m.place.naver.com/restaurant/1764452545,경기 부천시 호현로 488 정다운그린빌,4.43,/해산물쌀국수 주문했는데 냉동해산물인데 신선도도 떨어져서 해물은 아예 입에도 대기 싫었네요/좋아요 !/오픈때부터 방문해왔지만 리뷰는 처음이네요 오랜만에 방문해서 늘먹던 메뉴를 시켰는데 맛이 좀 변했더군요.. 스파이시 쌀국수는 좀 많이 새콤해져서 반을 남기고 왔습니다.. 그치만 양은 항상 많아서 좋았구요 다만 늘 주시던 스프링롤을 이번엔 안주시더라구요 배달어플에선 리뷰이벤트라고 주시던데 안주시는줄 알았으면 저희도 그냥 배달 시켜먹을걸 그랬네요/친절해요/좋아요/파인애플볶음밥과 사천해물볶음쌀국수 먹었는데요. 전체적으로 간이 잘 안베어있어요. 면도 좀 불은것같고..별로 맛은 없는편이예요. 그리고 물병이 더러워서 물은 안마셨습니다. 너무너무 배고프고 돈이 아까워서 최대한 먹고 나왔어요../가격만큼 양이 많아 배불리 먹습니다./국물이 맛있고 스몰도 양이 많네요~/맛있었어요! 서비스도 주셔서 배터지게 잘 먹었습니다!,/4.43/60개 평점 58명 참여,24
디저트구스,제과제빵떡케익,제과점,제과점업,소사본동,37.4805917098673,126.793623319332,제과제빵떡케익제과점제과점업,소사본동%20디저트구스,https://m.place.naver.com/restaurant/1373129500,경기 부천시 호현로 480,4.31,/리얼초코맛 도넛 너무 맛있어요!!! 가격도 착해서 쟁여둡니다~~~🍩🍩🍩🍩/도넛맛있어요~/맛나요/녹차자바칩 진짜 맛있어요!!!!!!/맛있어요/내부도 예쁘게 꾸며놓으셨어요! 디저트는 넘 귀엽지만 무난한 맛! 가격은 저렴한 편이에요 ㅎㅎ/좋아요/분위기는 좋은데 뭔가 관리가 안되는 느낌이 있어요/커피도 도넛도 너무 잘 먹었습니다~ 달지않고 맛있었어요!!!!/와플이 너무 질기고 딱딱해요.,/4.31/94개 평점 88명 참여,44
여우애김밥,분식,라면김밥분식,분식 및 김밥 전문점,소사본동,37.4817760214901,126.794893229388,분식라면김밥분식분식 및 김밥 전문점,소사본동%20여우애김밥,https://m.place.naver.com/restaurant/1169066043,경기 부천시 경인옛로 25 B1층 B105호~106호,4.54,"/맛도맛있공~~~~~ 오래기다렸어서그런건지 김말이하나더튀겨주셨어요! 국물후레이크도있어좋음!! 사장님 엄청바쁘신가운데에서 왕친절하심!!!! 다요 트하고건강한키토김밥!!/김밥한줄 포장하는데 20분 대기.. 근데 점심시간이고 워낙 바빠보여서 아무말없이 기다림. 13분째기다릴 쯤 뒤에 사람들이 먼저 가져가고 그제야 영수 증 주문 확인하고서는 배달이랑 겹치면 주문내역이 키오스크에서 안넘어올때가 있다고. 어절까요하는.. ? 가게측 오류이면 죄송하단말 먼저 했어야 하 는거 아닌가? 변명하기 바쁨. 그냥 가게측 오류다 죄송하다. 하면 이해하려고했는데 나보고 어절까묻는.... 환불해줄거면 내 기다린시간까지 보상.../맨날 병원 늦게 가서 지나가다가 그냥 보기만하고 집에갔는데 오늘은!! 병원 가기전에 먹었거든요 맛있드라구요잉 다른 메뉴도 먹어보고 싶네유 특히 특이한 김밥이 많아서 먹고싶숨둥/매번 맛있게 먹고갑니다 사장님 넘 친절하셔요 ^^/혼밥하기 좋은 집이 확실합니다./무난하니 괜찮아요~/떡볶이도 싱겁지않고 맛있고 신메뉴 치킨텐더 샐러드김밥도 맛있어요 ㅎㅎㅎ/김밥맛있어요/맛도 있고, 가볍게 혼밥 하기 좋네요./매장 깨끗하고 혼밥하는 사람도 적당히 있어서 너무 북적거리지 않고 혼밥 하기 좋아요 사장님 친절하십니당",/4.54/309개 평점 241명 참여,160
아모르바베큐파티,양식,바베큐전문,서양식 음식점업,소사본동,37.4795682711498,126.793990268004,양식바베큐전문서양식 음식점업,소사본동%20아모르바베큐파티,https://m.place.naver.com/restaurant/1266260501,경기 부천시 호현로474번길 15 1층 일부호,4.52,/굿/좋아요~/굿/좋아요/좋아요~/좋아요~/굿/좋아요~/좋네/좋아요~,/4.52/53개 평점 45명 참여,38
막창애삼겹,한식,갈비/삼겹살,한식 음식점업,소사본동,37.4723921258388,126.797146681155,한식갈비/삼겹살한식 음식점업,소사본동%20막창애삼겹,https://m.place.naver.com/restaurant/1432203959,경기 부천시 소사로160번길 30,,,,4
무식한초밥,일식/수산물,음식점-초밥전문,일식 음식점업,소사본동,37.4756940340476,126.801095972016,일식/수산물음식점-초밥전문일식 음식점업,소사본동%20무식한초밥,https://m.place.naver.com/restaurant/1905657965,경기 부천시 소안로 10,4.42,"/맛있어요!! 👍 여기 알고 나서부터는 다른 초밥집 따로 안가게 되는 것 같아요^^/집앞이라 가끔 이용하는데 전화주문후 10분후 가지러갑니다. 직접 픽업하면 2000원 할인해줘요. 맛도 좋고 재료도 신선합니다. 40P 주문했는데,다양 한 종류의 초밥으로 구성되어 가족과함께 먹으면 각자 좋아하는 걸로 나눠 먹으니 만족스럽네요. 오늘은 사진찍을 새도 없이 먹어버려서 영수증을 올 립니다./포장으로 시텼더니 2000원 할인받아서 1.8 저렴한 가격에 초밥 먹었어요. 구성도 깔끔하고 맛있네요. 포장인데 서비스도 주시고 넘 감동이에요!!! 다음에 초밥시킬 일 있으면 또 먹어야겠어요 사장님 번창하세요^^/넘맛잇어요 역시 초봡 ㅠ/../굿/굿/굿/ㅇ/넘맛나네용",/4.42/110개 평점 105명 참여,49
건달치킨,닭/오리요리,후라이드/양념치킨,치킨 전문점,소사본동,37.4791439288071,126.793906638608,닭/오리요리후라이드/양념치킨치킨 전문점,소사본동%20건달치킨,https://m.place.naver.com/restaurant/1859149707,경기 부천시 호현로474번길 24,4.32,"/닭강정 여러가지 맛 있어서 좋아요/닭강정, 순살치킨 맛있어요 매운맛 더 매웠으면 좋겠어요/맛나요/맛나요/경기가 안좋아서 그런지 가격이 많이 올랐네요/굿/굳/굿굿/굿/좋아요",/4.32/102개 평점 73명 참여,109
뉴욕어시장,일식/수산물,횟집,한식 음식점업,소사본동,37.4725821532904,126.798997691024,일식/수산물횟집한식 음식점업,소사본동%20뉴욕어시장,https://m.place.naver.com/restaurant/1416579756,경기 부천시 소사로160번길 61,4.38,/굿/좋아요/좋아요./궂/친절하시고 맛있어요/좋아요/친절/좋아요/궂/굳,/4.38/79개 평점 74명 참여,43
여수식당,한식,한식/백반/한정식,한식 음식점업,소사본동,37.4821300204595,126.790738003366,한식한식/백반/한정식한식 음식점업,소사본동%20여수식당,https://m.place.naver.com/restaurant/37319273,경기 부천시 경인로316번길 7-5,,,,1
카페,커피점/카페,커피전문점/카페/다방,비알콜 음료점업,소사본동,37.4824083310655,126.796816517864,커피점/카페커피전문점/카페/다방비알콜 음료점업,소사본동%20카페,https://m.place.naver.com/restaurant/1138407256,경기 부천시 은성로62번길 13 백암빌딩 101호,4.7,"/아빠 환갑 기념으로 떡케이크 주문했는데 너무 예쁘고 예쁜만큼 맛도 있었어요!!💓 단호박설기로 주문했는데 부모님도 많이 안 달고 담백하니 맛있다 고 하셨어요 :) 주인공 아빠 입맛 취향 저격✨ 떡이 촉촉하고 쫀득쫀득하니 씹을때마다 은은한 단호박 단맛이 나서 넘 매력적이더라구요ㅠㅠ 꽃 앙금도 예쁜데 부드럽고 적당한 단맛이 나서 넘 맛있었어요,, 떡이랑 앙금이랑 같이 한 입 먹으면 이 곳이 천국😇 떡케이크 처음 주문해봤는데 너무 만.../친구가 여기 케이크 너무 맛있고 부드럽다고 하길래 언제 한 번 먹어 버려야지 벼르고 있다가... 초코를 좋아하는 친구 생일에 오레오가나슈케이크 주문 했어요 🤤 완전 부드러운 크림 + 찐~한 가나슈 + 오레오 조합 진짜 미친 녀석이에요,,,,,, 저는 이렇게 보들보들 촉촉한 케이크 겨드랑이에 털 나고 첨 먹 어 봐요 🥰 저는 사실 초코를 별로 안 좋아하는 편인데도 이 미친 조합에 정신 놓고 와구와구 퍼 먹었고,,, 초코쟁이인 친구들은 지금까지 먹었던 .../항상 케이크 주문은 스윗하모니에서 해요😍!! 일단 사장님께서 너무 친절하시고 원하는대로 잘 만들어주셔서 올때마다 만족도 최상입니다👍🏻👍🏻 그리구 제가 주문한 케이크는 크림치즈?맛이었는데 케이크 속까지 알차게 맛있었어요 넘 감사합니다 또 방문할게요>_<♥️♥️/기존에 브랜드 카페에 비해 메뉴들이 다들 특색있어서 너무 좋았어요 :-) 특색이 있다고 해서 막 튀거나 독특하지도 않고 너무 맛있게 먹었습니다-! 사장님도 너무 친절하시고 메뉴들도 예쁘게 포장돼서 선물하기도 좋은 것 같아요! 저는 모카케이크랑 로투스케이크 먹었는데, 다음에는 기념일에 주문제작 해보려구요!! 기념일에 선물하기도, 가볍게 먹기에도 다 좋은 것 같아요 :-)/휘낭시에 맛집이에요!!! 레터링케익과 디저트맛집! 꼭 한번씩 가보셔요!!!/케이크 주문했는데 너무 예쁘고 너무 맛있어요!! 다른 디저트도 엄청 맛있어요 케이크나 디저트 별로 안좋아하시는 분들도 여기서 드시면 계속 생각나실거예요ㅠㅠㅠㅠ스윗 하모니 짱❤️❤️❤️❤️/색감도 너무 예쁘고 진짜 맛있어요!! 너무 달지도 않아서 특히 어른분들께 선물하기 좋을 것 같아요!!👍👍 사장님도 짱 친절하시구 최고입니당🥰/원하는대로 케이크 디자인이 예쁘게 나와서 1차 만족, 맛있어서 2차 만족, 가격도 합리적이어서 3차 만족,, 사장님도 친절하셔서 첫 주문 제작 케이크 기분좋게 성공했네요💖 다른 메뉴들도 많던데 다음에 또 주문해야겠어요!! 감사합니다 >,</사장님이 넘 넘 친절하시고 가게도 엄청 청결했어요 >__< 일단 케이크가 넘 예쁘고 .... 딱 제가 원하는 대로 만들어주셔서 완존 만족이에요 ㅠㅠㅠㅠ 다음에 또 주문할게요 ㅎㅎㅎ/🍓딸기찹쌀떡 맛집🍓 딸기찹살떡 먹고 싶으시다면 무조건 스위트하모니! 너무너무 맛있어요ㅜㅜ 지인 추천으로 먹게됐는데 또 주문하려구요♥ 사장님 너무 잘먹었습니다 최고💕💕👍🏻👍🏻 번창하세요~~!!",/4.7/20개 평점 21명 참여,20
하우마라탕,중식,중국음식/중국집,중식 음식점업,소사본동,37.4781295176489,126.797812224151,중식중국음식/중국집중식 음식점업,소사본동%20하우마라탕,https://m.place.naver.com/restaurant/1468411813,경기 부천시 소삼로 46 드링타워A동104,4.44,"/진짜로 맛있어요 소사에서 다른 마라탕집 다니다가 얼마전에 여기 도전 해봤는데 이제 여기로 정착합니다... 직원분도 친절하시고 그리고 무엇보다 재료 상태가 다 깨끗해요! 솔직히 다른곳은 대충 씻어서 진열한거 같은 그런곳 많았는데 여기는 넘 깨끗해요 더 안심되고 좋아요 ㅠㅠ 맛도 두말 할거 없고 면 퍼진거 싫어하는데 딱 좋아욤,, 계란볶음밥도 존맛돌희 꿔바로우는 없는게 슬프지만ㅠ 계란볶음밥이랑 같이 먹어도 개맛있어요/예전이랑 많이 달라져서 속상해료/좋아요/정말답이 없다 여기는 장소가 작으면서 손님을 응대하슨 태도가 진짜 답없다 일하는 직원이 한국사람 아니고 말도 제대로 못한다.한국사람이 아니라서 멀 바라는건 없는데 너무 메뉴가 나오는데 느리고 진짜 답답하고 안심콜도 없고 QR코드 인식도 없고 그냥 명부작성하는데 요즘 명부작성하면 개인정 보 유출 우려가 있어서 안심콜 qr로 대체하는데 전혀 언급도 없고 그냥 답이없다 아 진짜 이렇게 장사해도되는건지 전혀 한국장사방식에 사전정.../마라탕에 중독됐어요.. 첨 먹어본 마라탕이 이가게인데 넘 맛있어서 일주2-3번 가요.. 계란볶음밥도 엄청 꼬소하니 맛있고 멘보샤도 새우향 그득! 넘 자주 가니 언제부터 매번 음료수 서비스 주십니다^^ 사장님 두분 넘 친절하세요../좋아여/좋아여/일반 마라탕은 너무 특유의 향이나는ㄷㅔ 여긴 그런게 없어서 자쥬 먹어욤 너무너무 맛있음요! 🥰/쪼오오오오온맛탱입니다 와... 마라탕 다른집에서 한번 이집이 두번째 먹어보는데 너무 맛있네요 앞집도 맛있다 생각했는데 여기가 더 맛있어요 ㅋㅋ 멘보샤도 굿굿굿!!! 밥은 좀 고들밥이라서 .. 제입에는 별류.../굿",/4.44/207개 평점 114명 참여,85
아이스크림할인점와와,패스트푸드,아이스크림판매,제과점업,소사본동,37.467000163556,126.801212223176,패스트푸드아이스크림판매제과점업,소사본동%20아이스크림할인점와와,https://m.place.naver.com/restaurant/1655614685,경기 부천시 소사로78번길 77,4.5,/굿/굳/굿~/가깝고 편해요/굿/종류 다양해서 좋아요/좋아요/청결/굿/맛있어요,/4.5/252개 평점 114명 참여,128
경성짜장,중식,중국음식/중국집,중식 음식점업,소사본동,37.4746948126881,126.797641135485,중식중국음식/중국집중식 음식점업,소사본동%20경성짜장,https://m.place.naver.com/restaurant/1387644541,경기 부천시 은성로62번길 13,4.1,/굿/굿/군/친절해요/맛있어요!/굿/친절해요/굿/맛나요,/4.1/5개 평점 10명 참여,9
호식이두마리치킨,닭/오리요리,후라이드/양념치킨,치킨 전문점,소사본동,37.4741931455535,126.798813634842,닭/오리요리후라이드/양념치킨치킨 전문점,소사본동%20호식이두마리치킨,https://m.place.naver.com/restaurant/1782508210,경기 부천시 은성로68번길 21-10,4.55,/맛나요/맛나요/굿!/맛나요/맛있어요/맛나여/양이믾아요/배달까지 20~25분 정도 걸리신듯해요 엄청빠르고 바삭하고 맛있어요!/맛있어요/가질러왓다고 여러가지 서비스 챙겨주심,/4.55/11개 평점 20명 참여,13
태리로제떡볶이,분식,떡볶이전문,분식 및 김밥 전문점,소사본동,37.4818210660789,126.794892505889,분식떡볶이전문분식 및 김밥 전문점,소사본동%20태리로제떡볶이,https://m.place.naver.com/restaurant/1567144851,경기 부천시 경인옛로 25,4.4,/두번째 방문 진짜 안먹을수없는 맛 감사합니다!!❤️❤️❤️/사장님이 엄청 친절하시고 떡볶이 좋아하는 여자친구가 너무 좋아해요ㅠㅠㅠㅠㅠㅠ감사합니다 자주 주문해서 먹을게요❤️❤️❤️/부천페이가 안되는건 아쉽지만 맛있어요/적지만 맛은 있어요/맛있네요/친절해요/맛있어요/다른 곳 로제떡볶이에 비해 이것 로제떡볶이가 좀 덜 자극적이고 로제 느낌에 가까운 것 같아요. 닭강정도 맛있었습니다/제가 먹어본 로제떡볶이중에 최고였어요 전혀 느끼하지않고 고소해요 일하시는분들도 친절하세요 자주 먹으러 갈것같네요,/4.4/10개 평점 18명 참여,11
꽃하루앙금플라워,제과제빵떡케익,떡전문,제과점업,소사본동,37.4770922094839,126.79240201412,제과제빵떡케익떡전문제과점업,소사본동%20꽃하루앙금플라워,https://m.place.naver.com/restaurant/1065856417,"경기 부천시 호현로 439 1층, 꽃하루앙금플라워",,/너무 이뻐요. 감사합니다 ❤🧡💛 다음번에도 잘 부탁드려요~~/엄마생신이라 일반케익 항상 버려서 떡 케익주문해봤는데 정말 맞추기잘했어요 넘 이쁘고 먹기 아까웠습니다. 앞으로 생일때마다 이용할께요 정성을 다해 만든케익이라 넘 좋았습니다/실물이 더 예뻐서 만족스러웠습니다! 다음에 또 주문할게요!!/꽃이 너무 예쁘고 맛도 좋습니다/예약하고 픽업했는데 실물이 훨씬 예뻤어요 ㅜㅜ 색감이 너무 고움.. 떡도 너무 달지않아서 부모님 맛있게 드셨고요. 꽃 하나하나가 너무 예뻐서 감탄하면서 먹었습니다./늦은 시간에 상담도 해주시고ㅠㅠ 너무너무 마음에들어여 자주 이용 하겠습니다 ㅎㅎ 짱짱!!,,6
부어치킨,닭/오리요리,후라이드/양념치킨,치킨 전문점,소사본동,37.4723910901354,126.797044951084,닭/오리요리후라이드/양념치킨치킨 전문점,소사본동%20부어치킨,https://m.place.naver.com/restaurant/1117053524,경기 부천시 소사로160번길 26-1 1층,4.35,/부어치킨 진짜진짜맛있어요. 그래서 먹다가 사진찍었어요..^^ 사진은 맛쇼킹이랑 닭강정맛인데요. 닭강정도 맛있어서 항상 시키는 맛입니다. 그리고.. 특히 맛쇼킹은 정말 맛있어요. 꼭 먹어보세요 꼬오오옥 너무 맛있음 진짜 쇼킹한 맛이에요. 전화주문했었는데(두마리세트.. 사장님 너무 친절하시고 그렇습니다. 부어치킨 소사점 흥해라 흥/./진짜맛있고 친절해요/👍/포장 찾으러 갔는데 마스크도 안쓰고 조리하시고../굳/좋아요/그냥그래요/맛있어요/눈많이와서 포장해갔는대 마싯었어용 ㅎㅎ,/4.35/43개 평점 37명 참여,22
떡사랑,제과제빵떡케익,떡전문,제과점업,소사본동,37.4725095353806,126.803385273678,제과제빵떡케익떡전문제과점업,소사본동%20떡사랑,https://m.place.naver.com/restaurant/1294100811,경기 부천시 소사동로72번길 17,4.33,/긋/청결하지 않음. 친절하지 않음. 매번 전화하며 웃고 떠드느라 손님이 와도 보는둥 마는둥 먼저 인사해도 절대 인사 안함. 예전 빵집이 다시 돌아왔으면/굿/좋아요/떡이 맛있어요/굿/좋아요/쫄깃쫄깃 맛있는 떡들~~♡/굿/좋아요,/4.33/169개 평점 125명 참여,83
남촌숯불갈비,한식,갈비/삼겹살,한식 음식점업,소사본동,37.4731483532726,126.795314408287,한식갈비/삼겹살한식 음식점업,소사본동%20남촌숯불갈비,https://m.place.naver.com/restaurant/1119578248,경기 부천시 소사로 165-2,4.83,"/왕갈비 맛있어요 :)/고기도 냉면도 맛있고 사장님도 친절해요/왕갈비 맛있네요 ㅎㅎ/좋아요/좋아요/사장님 친절하시고 평일낮에가면 갈비시켰을때 냉면,밥,국 공짜로 먹을수있어요 오예/좋아요/최고예요!! 음식도 깔끔하게 나오고 사장님도 너무 친절하시고.. 근처 아버지가 계셔서 밥먹으러 간거였는데 너무 맛있었습니다!!!/굿/좋아요",/4.83/15개 평점 25명 참여,14
영스비어,유흥주점,호프/맥주,기타 주점업,소사본동,37.4770678138516,126.795308019616,유흥주점호프/맥주기타 주점업,소사본동%20영스비어,https://m.place.naver.com/restaurant/1487888159,경기 부천시 소사로 211 1층,5.0,/매주맛 굿이에요/간단하게 술한잔하기 좋아요/처음 와보았는대 술한잔하기 좋아요/한잔하기 좋았어요/생맥도 좋고 안주도 싸고 맛있어요/굿 이네요/술한잔하기 좋아요/좋아요/좋아요/좋아요,,18
푸라닭,패스트푸드,피자전문,"피자, 햄버거, 샌드위치 및 유사 음식점업",소사본동,37.4745586042744,126.798423398094,"패스트푸드피자전문피자, 햄버거, 샌드위치 및 유사 음식점업",소사본동%20푸라닭,https://m.place.naver.com/restaurant/1398220990,경기 부천시 은성로68번길 13,4.54,/좋아요/ㄱㅅ/좋아요/ㄱㅅ/../콘소메이징 맛나요 가루가 뭉쳐서 좀 아쉬웠네요/좋아요/좋아요/가루뿌린 치킨은 안좋아하는데 콘소메이징은 맛나요/푸라닭~ 최고!!!,/4.54/124개 평점 103명 참여,65
라홍방마라탕,중식,중국음식/중국집,중식 음식점업,소사본동,37.4731999389389,126.80393953194,중식중국음식/중국집중식 음식점업,소사본동%20라홍방마라탕,https://m.place.naver.com/restaurant/1316273216,경기 부천시 소사동로 82 1층 108호,4.48,"/마라샹궈 맛있네요/매장은 청결하고, 야채는 너무 신선하고, 맛은 얘기할 필요도 없고.. 다시 갈 이유가 너무 충분해요../맛있어요 매장도 깔끔해용/굿/ㅎ/비오고 으슬으슬 찬바람 불때 너무 생각이 나 먹고왔어요.. 여기에서 마라탕 입문하고 다른곳에서도 먹어봤는데 역시 여기가 국물이 찐하고 더 맛있어 요! 쿼바로우도 참 맛있는것 같아요! 비오는날 유난히 매장이 붐비는 느낌이 있네요~ 배달서비스랑 포장손님까지 겹쳐 홀이 정신없긴 하지만 맛은 진짜 최고인듯 합니다./좋아요/ㅋ/굿/😊",/4.48/56개 평점 86명 참여,82
국수와사랑에빠진날,분식,국수/만두/칼국수,분식 및 김밥 전문점,소사본동,37.4773631702028,126.792465489287,분식국수/만두/칼국수분식 및 김밥 전문점,소사본동%20국수와사랑에빠진날,https://m.place.naver.com/restaurant/1640043847,경기 부천시 호현로 443,,/좋아요,,1
족발야시장,한식,족발/보쌈전문,한식 음식점업,소사본동,37.4754451585627,126.79877098426,한식족발/보쌈전문한식 음식점업,소사본동%20족발야시장,https://m.place.naver.com/restaurant/1356073284,경기 부천시 은성로67번길 12 1층 104호,,/사장님이 너무 시끄러워서 먹다가 빨리 나왔어요 음악이라도 있었음 조금은 낫지 않았을까… 아쉬웠어요ㅜㅜ/주인분 정신세계 특이함 매운 소스 좀 달랬더니 승질을 내질 않나 트림을 크게 몇번을 하질 않나… 친구랑 어이가 없어서 후딱 먹고 나옴. 다시는 안감./보쌈에 나오는 수육은 너무 말라서 한점먹고 못먹었네요. 신경좀 써주셔야 할거 같습니다./좋아요/좋아요/좋아요/고기가 깍둑썰기라 퍽퍽해요 족발이아니고 사태반 껍데기 반 같아요/좋아요/맛있어요,,9
강촌숯불닭광장,닭/오리요리,불닭전문,한식 음식점업,소사본동,37.4775808615708,126.795254559409,닭/오리요리불닭전문한식 음식점업,소사본동%20강촌숯불닭광장,https://m.place.naver.com/restaurant/1700273285,경기 부천시 소사로 215,4.5,"/저번에 먹고 너무 맛있어서 이번에 또 먹으러 왔어요! 갈때마다 양도 많고 진짜 맛도리입니당,,,♡ 닭갈비도 맛있고 닭목살도 진짜 너무너무 맛있어요! 다음에 또 먹으러 갈게요~!~!~!ᕕ[ ・ ▾ ・ ]ᕗ/두번째 방문인데 여러분 가셔서 닭목살 꼭 시켜드세요 진짜 가성비 미쳐씀미다,, 그리고 열무국수 비빔국수 둘다 존맛탱! 음식 나오마자마자 먹느라 바빠서 사진은 없어여,, 동네 닭갈비 맛집 인정/맛있게 잘 먹었어요~/숯불닭갈비 엄청 부드럽고 양도 많고 파김치가...진짜....같이 싸먹으면 꿀맛입니다..파김치에 싸먹은 닭갈비..종종 생각나욤..진짜 넘나 맛있구 국수도 맛있고 양 많은데 3천원;;;ㅎ 사장뉨 짱!!!!! 재방문각 별 오천만개☆☆☆☆☆/정말 맛있게 먹은 닭갈비집!!! 숯불에 구워서 더 맛있는데다 살이 부드럽고 촉촉해요 계란찜도 엄청 부드러워서 막 퍼먹었는데 간이 좀 쎈듯 밑으로갈수록 짜요 그래도 맛있어요 열무국수 살얼음 동동 진짜 존맛탱구리구요 이렇게 리뷰 길게 쓴적 잘없는데 너무 맛있게먹어서 요거 보시는분들 꼭 추천이요/다른곳보다 양이 많아요~ 담백하게 잘먹었습니다. 비빔국수.유부국수 3000원에 맛있습니다. 음식이 조금늦게나온다는~/닭 육질도 부드럽고 너무 맛있어요!! 열무냉국수도 너무 맛있고 닭갈비 나오기전에 먹어보라고 주신 닭똥집도 너무 맛있어요!!! 소사역 맛집이네요/여기 닭갈비 진짜 맛있어요,, 처음 왔는데 너무 맛있고 배부르게 잘 먹고 갑니다😊 그리구 비빔국수 진짜 추천!! 진짜진짜 추천!!/좋아요/너어무 맛있게 잘 먹었습니다🥰 특히 저녁에 알바하시는 여자분 넘 친절하셔서 저희 카페로 데려오고 싶었어요...😊ㅋㅋㅋㅋ 아! 그리고 주먹밥같은 메뉴가 추가되면 엄청 좋을것같아요!ㅎㅎ 잘먹었습니당 감사합니다 :)!!",/4.5/28개 평점 34명 참여,34
아찔한국물떡볶이,분식,떡볶이전문,분식 및 김밥 전문점,소사본동,37.4738510499597,126.795303128974,분식떡볶이전문분식 및 김밥 전문점,소사본동%20아찔한국물떡볶이,https://m.place.naver.com/restaurant/1877276911,경기 부천시 소사로 175,4.95,"/로제떡볶이 부드럽고 맛있어요🥺 1-2인분 짜리라는데 저흰 셋이서 배터지게 먹어요... 소시지가 진짜 뽀득하니 맛있습니다 여기는 치즈도 그렇고 토핑이 퀄리티가 다 좋아서 뭘 추가해도 만족돼요!! 치즈볼 5개 들어있는데 포장해오는 길에 집어먹어서 사진에는 2개,,, 쫀득하니 존맛/사장님 ㅠㅠ 너무너무 친절하시고 자상하셔서 포장 기다리는 동안 너무너무 좋았어요 ㅠㅠ 수험생이라서 이쁘게 봐주신건지 서비스도 정말 많이 주시 고 간식거리도 이것저것 챙겨주시고ㅠ 정성이란 정성은 다 느꼈어요.. 맛도 역시 맛있구 정말정말 감사합니다!! 앞으로 정말 많이 방문하겠습니다 행복 하세옹!!/매운맛 맛있어요/다른 떡볶이도 맛있지만 정말정말 로제떡볶이 2단계 너무 너무 맛있어요!! 음식도 정말 맛있고 사장님도 친절하시고 매장도 청결해요. 떡볶이 좋아하는 지인에게 맛 보여주고 싶어서 또 갔는데 역시 맛있게 식사했어요! 모듬튀김도 다양하고 맛있어요!! 서비스도 주셔서 너무너무 감사해요! 번창하세요:)/맛있어요/좋아요/가끔 떡볶이 생각날때 마다 사먹는데 사장님 친절하고 좋아요 애기먹을 메뉴도 많아서 좋아하고 맛있어요/3번째 사먹는 떡볶이!! 로제떡볶이 신라면정도 매운맛으로 모둠튀김이랑 날치알 쿨피스세트 완전 맛있어요!! 일하면서 스트레스받을 때마다 완전 당겨요. 엄마랑 매번 포장해서 먹는데 사장님은 늘 친절하시고 가게도 깨끗하고 맛있어요😆😆😆 추석때 못 시켜서 끝나자마자 퇴근하고 바로 가서 먹을정도로 맛있어요👍👍/오늘 방문포장으로 처음 시켜봤는데 사장님이 진짜 너무너무 친절하셨구 따로 포장할 용기 갖고 가도 되냐고 여쭤봤는데 흔쾌히 된다고 해주셨어요!! ㅠㅠ떡볶이에 스파게티면 사리,분모자사리,중국당면 사리 서비스로 넣어주시고 쿨피스도 서비스로 주시고… 추석선물이라고 음료수 2개도 쥐어주시 고 .. 사장님.. 이런식이시면 진짜 부천 최고 떡볶이 집밖에 못해요.. 시켜먹으면서 이렇게나 기분 좋았던 적이 없는것 같아요.. !!!! 3명이서 먹었는.../맛있어요",/4.95/22개 평점 27명 참여,32
커피에반하다,커피점/카페,커피전문점/카페/다방,비알콜 음료점업,소사본동,37.4804312806207,126.798216295518,커피점/카페커피전문점/카페/다방비알콜 음료점업,소사본동%20커피에반하다,https://m.place.naver.com/restaurant/1573534844,경기 부천시 부흥로 471-3,4.51,/굿/굿/굿/:)/굿/사장님 친절하시고 커피도 맛있어용♡/굿/저렴하고 맛있어요/^^/적당한 달달함~♡,/4.51/63개 평점 56명 참여,20
장금이분식,분식,라면김밥분식,분식 및 김밥 전문점,소사본동,37.4726105580656,126.79647617259,분식라면김밥분식분식 및 김밥 전문점,소사본동%20장금이분식,https://m.place.naver.com/restaurant/1277634716,경기 부천시 신흥로73번길 60,4.67,,/4.67/12개 평점 10명 참여,12
명랑시대쌀핫도그,패스트푸드,핫도그,"피자, 햄버거, 샌드위치 및 유사 음식점업",소사본동,37.4719685398419,126.803348678275,"패스트푸드핫도그피자, 햄버거, 샌드위치 및 유사 음식점업",소사본동%20명랑시대쌀핫도그,https://m.place.naver.com/restaurant/544052886,경기 부천시 호현로489번길 25,4.5,/자주 포장해 가는데 항상 맛있어요/조아요/좋아요/세트메뉴/굿/좋아요/맛있어요/좋아요/굿/좋아요,/4.5/183개 평점 132명 참여,50
제육대가,한식,한식/백반/한정식,한식 음식점업,소사본동,37.4732649860734,126.796149129552,한식한식/백반/한정식한식 음식점업,소사본동%20제육대가,https://m.place.naver.com/restaurant/1411771361,경기 부천시 소사로170번길 12 1층 일부호,4.58,/어우 제육 넘 맛있음/술안주로 늘 맛있게 먹고 있어요~/늘 맛있는 제육/언제나 맛있어요😊 근데 오늘은 비계가 많았음 ㅠ/비싼 술에 안주로 맛나게 먹었어요 ㅋㅋ🥳/뭔 제육이 이렇게 맛있는지; 또 먹고 싶음. 술 안주로 제격임! 🤪/막걸리 안주로 시켜 먹어봤는데 무지 맛있었다😋 순한맛임에도 맵찔이는 힘들듯 나는 또 먹고싶은 맛이다. 중독성 굿/제육 넘 맛있음👍🏻/ㅇ/맛있어요,/4.58/12개 평점 13명 참여,15
꼬꼬댁,닭/오리요리,후라이드/양념치킨,치킨 전문점,소사본동,37.4701722715909,126.795938721739,닭/오리요리후라이드/양념치킨치킨 전문점,소사본동%20꼬꼬댁,https://m.place.naver.com/restaurant/1260923246,경기 부천시 소사로 133 동보빌라,,/기본 안주로 계란후라이. 모든 안주가 맛나요. 조용히 얘기하기도 좋고 편해요/좋아요/굿,,3
명동찌개마을,한식,한식/백반/한정식,한식 음식점업,소사본동,37.4758423692137,126.795305080353,한식한식/백반/한정식한식 음식점업,소사본동%20명동찌개마을,https://m.place.naver.com/restaurant/1916138332,경기 부천시 소사로 195-1,4.16,/언제나 맛있어요/언제나 믿고 먹을수 있어요/더워서/가성비 굿/그냥 그래요~/굿/양도 많고 맛있어요~/좋아요/굿/좋아요,/4.16/69개 평점 66명 참여,26
순살만공격,닭/오리요리,후라이드/양념치킨,치킨 전문점,소사본동,37.4756940340476,126.801095972016,닭/오리요리후라이드/양념치킨치킨 전문점,소사본동%20순살만공격,https://m.place.naver.com/restaurant/1294284515,경기 부천시 소안로 10,4.52,/늦은 심야 시간에 치킨 튀겨주셔서 감사해용~ 🤗 생각보다 금방 배달 왔음! 🛵 저번에는 리뷰 이벤트 참여했었는데 까묵었네용.. 😭 다음 기회에~ 또~ 😋/다양해서 좋아용/넘 맛있습니다!!/맛나네요~~ 처음 시켜본곳~~^^/워크맨보고 궁금해서 포장했는데 맛있네요. 포장 할인도 해주시고 사장님도 친절하세요~/맛있어요/정말굿/굿/맛나요,/4.52/22개 평점 41명 참여,38
복사골전집,한식,파전전문,한식 음식점업,소사본동,37.4745735895091,126.799011045014,한식파전전문한식 음식점업,소사본동%20복사골전집,https://m.place.naver.com/restaurant/1206745222,경기 부천시 은성로76번길 14,4.5,/굿/좋아요/좋아요/좋아요/좋아요/좋아요/좋아요/좋아요/좋아요/좋아요,/4.5/9개 평점 16명 참여,15
라화쿵부,중식,중국음식/중국집,중식 음식점업,소사본동,37.4818210660789,126.794892505889,중식중국음식/중국집중식 음식점업,소사본동%20라화쿵부,https://m.place.naver.com/restaurant/1023809877,경기 부천시 경인옛로 25 103동 B121,4.6,/깔끔하게 잘 먹었습니다. 고수 좋아해서 많이 먹었어요 ㅎㅎ/매장이 깨끗해서 좋아요~가게 일찍 열어서 좋아요~다른 곳은 너무 늦게 염..../소사근처 중엔 제일 맛있어요 꿔바로우 바삭바삭한 편이에요 짱짱 존맛..........매일 먹구 싶엉용🤬/상하이에서 먹던 그맛이네요 마라샹궈 ^^ 자꾸 생각나는 맛입니다/포장해서 집에서 먹었는데 아이가 여기 넘 맛있다고 좋아하네요/마라가 좀 약한데 괜찮았엉ㅅ/잘먹었습니당!/음식 맛있게 잘 먹었습니다!!/혼밥하러 자주와요. 재료 손질 잘해놓으시고 깔끔해요~/ㅈ,/4.6/44개 평점 48명 참여,37
스시희,일식/수산물,음식점-초밥전문,일식 음식점업,소사본동,37.4690505361037,126.800817729102,일식/수산물음식점-초밥전문일식 음식점업,소사본동%20스시희,https://m.place.naver.com/restaurant/1237335627,경기 부천시 소사로102번길 59,4.61,"/진짜 맛있게 먹었어요~ 혼밥하기에도 좋고 사람들과 방문해도 좋을 거 같아요 메뉴도 다양하고 맛있어서 또 방문예정이에요!/초밥 안 좋아하는 남편도 아주 좋아했어요!!! 다음에는 사시미 꼭 먹고싶어요 ㅠㅠ/연남동에나 있을법한 예쁜 인테리어의 초밥집이 소사동에 생겨서 너무 놀랐어요 :) 회가 너무 부드러워서 스르륵 넘어가더라구요 특히 연어!̄̈ !̄̈ 점심특 선이 진짜 가성비가 좋아서 또오고 싶은 집이에요 우동도 큰걸로 나와서 배가 든든합니다/너무 맛있었어요!!! 엄마도 너무 맛있다며 가성비 좋다고 좋아하셨어요~ 서비스로 주신 가라아게 너무 맛있어서 다음에는 맥주에 가라아게 먹으러 또 갈게요!/와 여기 가성비 대박! 입에 꽉차는 마끼도 맛있고, 초밥도 다양한데다 입에서 녹아요 ♡/주말저녁이라 회나올때까지 시간이 좀 오래걸렸지만 맛있었어요. 초밥도 사시미도 다 맛있어서 자주 방문하는 동네 맛집이에요./와와 초밥 찐이다용👍후토마끼 이렇게 맛날수가요👏👏👏👏👏👏👏👏👏👏👏👏👏👏👏샐러드 상추대무침 모듀 쵝오요🥳/회덮밥 진짜 맛있네요! 요구사항도 잘 들어주시고 너무너무 잘먹었습니다👍👍/맛있게 잘먹었어요 옆테이블과의 거리도 넓고 맘 편히 먹을수있어서 좋았어요 감사합니다./존맛탱구리입니댜 ,,,,, 🖤 진짜 정말 맛있어요 꼭 가보세요 스시희 맛도리 인정 😻",/4.61/76개 평점 60명 참여,87
아이스365,패스트푸드,아이스크림판매,제과점업,소사본동,37.4818210660789,126.794892505889,패스트푸드아이스크림판매제과점업,소사본동%20아이스365,https://m.place.naver.com/restaurant/1847907048,경기 부천시 경인옛로 25,4.45,/👏🏻/굿/좋아요/깨끗하고 종류가 많아요 고르는 중에 사장님께서 들어오셔서 먼저 인사도 해주시고 좋아요/굿/굿/깨끗해요/여러종류 아이스크림 있어서 좋아요/상품이 많아요/잘이용했어요,/4.45/39개 평점 37명 참여,51
소새울양과점,제과제빵떡케익,제과점,제과점업,소사본동,37.4810414551166,126.794430155209,제과제빵떡케익제과점제과점업,소사본동%20소새울양과점,https://m.place.naver.com/restaurant/1868045593,경기 부천시 경인옛로 22 101호 소새울 양과점,4.58,/소사동에서 여기보다 맛있는 빵집 없어요 꼭드세요 엄청 많이 왔는데ㅠㅠ리뷰쓰는걸 자꾸 까먹어서..ㅠㅠ 사진에 보이는 피자빵 너무맛있어서 먹다가 눈물남;; 꼭드세요 한개말고 세개 사세요 두개도 안됨.. 사실 모든빵이 전부 기본이상 하는집이라 뭘집어도 맛있어요 소금빵 치즈식빵 현무암 등 너무나 도 맛도리입니다ㅠㅠㅠㅠ/바게트 맛있어요~ 사장님 친절해요~/피자빵이랑 소금빵 대박입니다ㅠㅠ꼭드세요 인생빵집이에요 ㅠㅠ/소금빵투어를 아주많이 했는데 이집보다 맛있는 소금빵이 없네요 인생소금빵이에요…/깜빠뉴랑 식빵만 구입해 보았는데요 깜빠뉴 맛은 괜찮은데 좀만 더 두껍게 썰어주시면 좋을 것 같아요^^/새로나온 메뉴 피자빵 완전 맛나요 살짝 매콤해서 더 좋은거같아요☺️☺️/넘넘 맛집!! 아낌없이 좋은 재료 팍팍 넣어서 만드는거같아요!!/제발 에프에 돌려드세요 존맛😍/소금빵이 원탑!!!!!!!/인생 소금빵이에요 ㅠㅠ,/4.58/77개 평점 85명 참여,132
부자돌솥설렁탕,한식,설렁탕집,한식 음식점업,소사동,37.4857793335271,126.791628985058,한식설렁탕집한식 음식점업,소사동%20부자돌솥설렁탕,https://m.place.naver.com/restaurant/21159051,경기 부천시 부흥로 471-8,4.18,/맛있고 친절하셔요/왕갈비 짱이예요/도가니탕.돌솥밥 창/오늘은 김치가 셔서 맛없엇어요 ㅜ 항상 김치가 안시고 맛있었는데ㅡ/맛있졍 ^^/굿/굳/맛있어요/친절해요,/4.18/309개 평점 279명 참여,109
만나국수,한식,파전전문,한식 음식점업,소사동,37.4846229682351,126.793094909982,한식파전전문한식 음식점업,소사동%20만나국수,https://m.place.naver.com/restaurant/1372188310,경기 부천시 부일로571번길 13,,/좋아요/조아요/조아요/맛있어여/좋아요,,5
마포갈매기소사역점,한식,갈비/삼겹살,한식 음식점업,소사동,37.4837063634135,126.794217730454,한식갈비/삼겹살한식 음식점업,소사동%20마포갈매기소사역점,https://m.place.naver.com/restaurant/1849780442,경기 부천시 소사로 287,,,,7
본죽,별식/퓨전요리,죽전문점,한식 음식점업,소사동,37.4859069613211,126.791773923085,별식/퓨전요리죽전문점한식 음식점업,소사동%20본죽,https://m.place.naver.com/restaurant/34787392,경기 부천시 부일로571번길 49 2층,4.29,/병원앞이여서 그럴 수도 있지만 죽 하나를 시켜도 자세히 설명해주시고 너무 친절하세요^^/사장님이 너무나 친절하고 음식도 진짜 깔끔해요.. 아플때마다 여기가서 주문하는데... 시간도 그렇게 오래안걸리는거 같아서 최고입니다/로로나로 인해 매장에선 식사가. 안되서 신짬뽕죽과 낙지김치죽을 사가지고와서 먹었다. 죽양도많고 깊고 풍부한 맛이 다음에도 또 기약해야겠다 사 장님이 매너도 있고 친절해서 나도 같이기분이 좋아지는것 같아졌다. 깜빡하고 사진을 찢지 못했네요. ㅠㅠ/요청사항 잘들어주셔서 좋았습니다 김가루도 따로주셔서 간맞추기 좋네요/굿/굿/친절해요/굳/굿/맛있고 친절하심.. 1인매장식사는 전화로 예약 안됨,/4.29/155개 평점 173명 참여,63
돈토랑나랑,한식,보리밥전문,한식 음식점업,소사동,37.4865308582374,126.790226080348,한식보리밥전문한식 음식점업,소사동%20돈토랑나랑,https://m.place.naver.com/restaurant/38503803,경기 부천시 부흥로 459,4.42,"/반찬 많이 나오고 다 맛있어요 와인삼겹살 정말 맛있어요 이거 먹고 다른가게가면 삼겹살 맛이 뭔가 부족한 듯한 느낌입니다 그래서 항상 삼겹살이 땡 기면 여기로 갑니다 사장님 오래오래 장사해주세요 :) 다만 주차할 곳이 주변에 없고 화장실은 좁아요 이런 부가적인 거 빼고는 다 좋습니다 추천이요 /쌈밥 맛집인데 왜 후기에 우렁쌈밥사진이 없나해서 오늘 갔다가 맛나게 찍어올립니댜~~~/오빠랑 와인삼겹살 4인분 클리어! 돈토랑 삼겹살은 비게도 부드럽고 고소함ㅠ 주말에 가려다 오늘 땡겨감ㅋㅋ 가격도 저렴하고 기본 반찬도 많이 나오 고 여긴 계란찜도 기본반찬에 포함임..밥시키면 된찌나오고 삼겹도 1인분에 12,000 (200g) 거기에 새송이 버섯도 같이나옴 다른곳가면 추가로 시켜야 할것들이 기본으로나옴;; 사장님 마인드가 좋으신듯 질도 좋고 맛도 좋고 ㅠ ㅠ사장님 이맛 변치 말아주세용/조아요/./굿/맵다./여기 맛있어요/회식은 돈토랑이죠/가성비 갑 맛집",/4.42/70개 평점 59명 참여,23
부천성모장례식장,한식,한식/백반/한정식,한식 음식점업,소사동,37.4874874535625,126.793014902041,한식한식/백반/한정식한식 음식점업,소사동%20부천성모장례식장,https://m.place.naver.com/restaurant/21529993,경기 부천시 소사로 327,4.37,/좋아요/굿/굿/주차가 편리해요/보통/네/주차장 어려워/시설이 깔끔합니다/친절해요/.,/4.37/89개 평점 65명 참여,56
충남방앗간,제과제빵떡케익,제과점,제과점업,소사동,37.4849572217197,126.793179989251,제과제빵떡케익제과점제과점업,소사동%20충남방앗간,https://m.place.naver.com/restaurant/1043041864,경기 부천시 부일로571번길 20,4.44,/좋아요/좋아요/굿/굿/굳~/좋아요/좋아요/좋아유/좋아요/😀,/4.44/55개 평점 43명 참여,34
크로바커피숍,커피점/카페,커피전문점/카페/다방,비알콜 음료점업,소사동,37.4859656130066,126.790461340322,커피점/카페커피전문점/카페/다방비알콜 음료점업,소사동%20크로바커피숍,https://m.place.naver.com/restaurant/21145391,경기 부천시 부흥로 466,,,,3
집밥권선생,한식,한식/백반/한정식,한식 음식점업,소사동,37.4848265867757,126.791859165268,한식한식/백반/한정식한식 음식점업,소사동%20집밥권선생,https://m.place.naver.com/restaurant/1925161363,경기 부천시 부일로 565-1,4.56,/추가 밥과 숭늉 무료 제공에 다 맛있고 신선해요/백반 맛집! 백반인데 한정식집같은 깔끔한맛.저가격에 반찬도 10가지가 넘고 밥도 인수대로 시키면 무한리필.후식으로 누룽지도 있고 추가로 밥도 더 말아 먹음 매일 바꾸는 반찬에 맛도 짱.사장님 친절도 짱.계산하고 나오면서 원두커피도 한잔~ㅎㅎ/매번 먹지만 깔끔한 맛에 감동입니다 집밥이라는 말이 잘 어울리는 집입니다 수저 받침까지 신경 써 주시는 섬세함/언제나 맛있어요/메인으로 시킨 제육볶음은 잡냄새도 안나고 양도 엄청 많이 나와요! 백반을 따로 시키지않고 제육만 시켜도 반찬도 많이 나오고 반찬이 다 신선하고 간 도 딱 맞고 너무 맛있었어요! 가성비 너무 좋았습니당 제 인생밥집이에요 흑흑 사장님 두분도 너무 친절하시고 다음엔 저녁에 방문해서 삼겹살에 소주 마셔야겠어요:)/계란찜도 나와요~굿/반찬깔끔하고 가격도 착한 백반입니다.오랜만에 백반 맛있게 먹었어요/조아요/맛있어여,/4.56/36개 평점 29명 참여,24
동대문엽기떡볶이범박점,분식,떡볶이전문,분식 및 김밥 전문점,괴안동,37.4746878713929,126.803169653432,분식떡볶이전문분식 및 김밥 전문점,괴안동%20동대문엽기떡볶이범박점,https://m.place.naver.com/restaurant/35927824,경기 부천시 은성로 111 1층,4.37,/중독되는맛 어쩔수 없나봐요/배달비도 저렴하고 맛있어요/매운맛 좋아하는분 최고예요/로제 떡볶이 맵지도 않고 아이들 먹기에 딱 좋은거 같아요/동대문엽기떡볶이 부천범박점 맛나요/착한맛이였는데도 매웠지만 맛있게 잘 먹었습니다/로제 중국당면 넣어먹어야제맛/음식이 맛있어요/항상 맛있어요!,/4.37/719개 평점 536명 참여,273
신정상회,닭/오리요리,오리고기전문,한식 음식점업,괴안동,37.4826181421088,126.808628689307,닭/오리요리오리고기전문한식 음식점업,괴안동%20신정상회,https://m.place.naver.com/restaurant/1089637756,경기 부천시 소삼로 11,4.22,/굿/ㅅ/친절해요/좋아요/좋아요/좋아요/좋아요/좋아요/친절하십니다^^/TV에도 나온 집이라해서 사봤어요.. 가격 맛 맘에 들어요,/4.22/25개 평점 26명 참여,11
파리바게뜨,제과제빵떡케익,제과점,제과점업,괴안동,37.4793365900098,126.806668282063,제과제빵떡케익제과점제과점업,괴안동%20파리바게뜨,https://m.place.naver.com/restaurant/19261450,경기 부천시 경인로 509 우남타워 1층 104호,4.35,/직원분들 왕친절하세요👏👏👏😍/집근처에 있어서 자주 가요/호밀빵 최고!! 건강으로 최고!!/케이준치킨샐러드 맛있어요! 일하시는 분들께서 친절하셔서 좋아요!/여러가지 맛있는 맛을 느낌/뀐아망이랑 뜯어먹는치즈식빵 맛있어요/직원분들 친절하시고 정리가 잘 되어있어서 빵들이 한눈에 다 들어와서 좋아요/자주가요 빵이 맛있어요/./종류가 다양해오,"/4.35/2,484개 평점 1,686명 참여",857
촌가추어탕,한식,한식/백반/한정식,한식 음식점업,괴안동,37.4741425909136,126.804489782099,한식한식/백반/한정식한식 음식점업,괴안동%20촌가추어탕,https://m.place.naver.com/restaurant/12862831,경기 부천시 소사동로 91-1,4.51,/포장되서 좋아요/좋아요/좋아요/좋아요/조아요/조아요/조아요/바람부는 추운 꽃샘추위에는 추어탕만큼 속을 든든하게 해주는건 없는것같다./에/오늘같은 변덕스러운 날씨에 먹으면 든든한 보양식이에요~강추,/4.51/39개 평점 28명 참여,16
BBQ치킨,유흥주점,호프/맥주,기타 주점업,괴안동,37.4768506939119,126.807657506866,유흥주점호프/맥주기타 주점업,괴안동%20BBQ치킨,https://m.place.naver.com/restaurant/11799018,,4.26,/역시 후라이드는 황금올리브 ㅎ/후라이드는 황올닭이 쩨일 맛있어요ㅠㅠ/좋아요/굿/맛나요~^^/완전 별로였어요./큼직큼직맛있습니다/맛있어요/맛있고 매콤하고 좋아요,/4.26/123개 평점 112명 참여,50
복사골포차,유흥주점,호프/맥주,기타 주점업,괴안동,37.4778560356652,126.809959267251,유흥주점호프/맥주기타 주점업,괴안동%20복사골포차,https://m.place.naver.com/restaurant/1518261131,경기 부천시 범안로 54,4.22,/좋아요/음식이 좀 늦게 나오긴 했지만 맛있어요 닭똥집은 양이 좀 적습니당/굿/맛있어요/굳/해물듬뿍 파전 강추예요~~/친절하세요,/4.22/25개 평점 24명 참여,7
경기부천소사지역자활센터음식점,한식,한식/백반/한정식,한식 음식점업,괴안동,37.4832396464344,126.808607513337,한식한식/백반/한정식한식 음식점업,괴안동%20경기부천소사지역자활센터음식점,https://m.place.naver.com/restaurant/1614166319,경기 부천시 소사로 456 원미도서관 지하1층,4.33,"/혼밥하기 좋아요 나름 괜춘/가성비는 좋은데 고구마라떼가 너무 달아요ㅠㅠ 앞으론 그냥 커피를,,,,/너무 맛있어요 또 갈게요/3년전에 만났던 원미도서관 식당.... 그가격 그대로, 그 추억 그대로 운영을 하셔서 좋았어요/너무 맛있고 오랜만에 급식 느낌 나서 좋았어요/좋아요/좋네요/굿/식사 가성비 좋아요",/4.33/3개 평점 18명 참여,23
까페러브,커피점/카페,커피전문점/카페/다방,비알콜 음료점업,괴안동,37.4768998449134,126.808063737474,커피점/카페커피전문점/카페/다방비알콜 음료점업,괴안동%20까페러브,https://m.place.naver.com/restaurant/35623918,경기 부천시 양지로 20,,,,12
바지락칼국수수제비,분식,국수/만두/칼국수,분식 및 김밥 전문점,괴안동,37.4806208311215,126.8044657156,분식국수/만두/칼국수분식 및 김밥 전문점,괴안동%20바지락칼국수수제비,https://m.place.naver.com/restaurant/1111814208,경기 부천시 경인옛로 123-1,4.46,"/손수제비 먹고싶어서 검색해서 찾아왔습니다 겉절이가 진짜 맛있네요 잘먹었습니다/정말 맛있어요/국수 맛있어요/갓성비 칼국수,수제비집 바지락 양이 미쳤어용!!/바지락도 많이 들어있고 맛있어요. 국물이 매콤해요/굿/맛있어요/보리밥도 맛있고 김치도 맛있고 칼국수도 맛있죠 바지락이 참 많이 들어있어요/굿/백반집",/4.46/173개 평점 145명 참여,79
두리마루,닭/오리요리,오리고기전문,한식 음식점업,괴안동,37.4797912893536,126.803517896653,닭/오리요리오리고기전문한식 음식점업,괴안동%20두리마루,https://m.place.naver.com/restaurant/30982361,경기 부천시 범안로22번길 56,,,,2
피자마루,패스트푸드,피자전문,"피자, 햄버거, 샌드위치 및 유사 음식점업",괴안동,37.48252029162,126.806968154685,"패스트푸드피자전문피자, 햄버거, 샌드위치 및 유사 음식점업",괴안동%20피자마루,https://m.place.naver.com/restaurant/33409604,경기 부천시 부광로8번길 39,4.34,/사장님이 친절하시고 맛있어요:)/굿/친절하고 맛있어요!/굿/굿/역시 피자맛집입니다 너무 맛있게 먹었어요!!/굿/좋아요/맛있어요/사장님 친절하시고 피자도 맛있어요.,/4.34/203개 평점 144명 참여,108
페리카나,닭/오리요리,후라이드/양념치킨,치킨 전문점,괴안동,37.4816253996941,126.804901972293,닭/오리요리후라이드/양념치킨치킨 전문점,괴안동%20페리카나,https://m.place.naver.com/restaurant/37687043,경기 부천시 부광로8번길 39,4.49,/사장님 무척 친절 하시고 후라이드 치킨 맛집🥰😍🥰😍/기름이 깨끗해서 고소하고 맛있어요~/맛있어요/좋아요/20년도 넘은 치킨맛집! 양념치킨 자극적이지않고 맛있어요~/굿/맛있어요/맛있어요/요즘 후라이드치킨이 매운곳들이 많아서 아이들과 먹을 수가 없는데 페리카나는 순하고 맛있어서 아이들과 먹기 좋아요/친킨은역시페리카나맛있다,/4.49/185개 평점 123명 참여,72
뚜레쥬르,제과제빵떡케익,제과점,제과점업,괴안동,37.4789701909079,126.806968069891,제과제빵떡케익제과점제과점업,괴안동%20뚜레쥬르,https://m.place.naver.com/restaurant/1178871038,경기 부천시 경인로 517,4.33,/메가...........빅싸이즈/친절하고 좋아요 :)/불고기 샐러드 맛있어요/일요일 낮 여직원분 완전친절하심 🍀🤗/맛잇고 친절해용/스콘이랑 로쉐가 있어요 직원분들 친절하시고 빵 맛있어요/매장이 작아서 그런지 빵 종류가 많지 않아요ㅜㅜ/사진이 안올라가는데 샐러드의 반인 양상추가 상태가 너무 안좋아서 다 버림.. 돈아까움/맛있어요~~^^/간만에 매장에서 직접 굽는 머핀을 사러갔는데 안나온다는 슬픈 소식을 접했다ㅠ,"/4.33/1,443개 평점 1,050명 참여",574
참치#,일식/수산물,참치전문점,일식 음식점업,괴안동,37.4789102098448,126.807274290373,일식/수산물참치전문점일식 음식점업,괴안동%20참치#,https://m.place.naver.com/restaurant/1541353164,경기 부천시 범안로 55 홈타운프라자 1층 114호,4.43,/가격대비 좋네요 또 생각날듯/./굿/가격좋고 맛있어요/좋아요/혼마세트45피스+초밥밥+새우튀김5피스 포장해서먹었어요. 45피스는 3인먹기 좋겠어요. 맛있고 좀 덜녹은채로 포장해주셨는데 좀 녹은후에 먹으니 입에서 살살 녹네요/굿/굳/참치가 해동이 덜 된건지 거의 얼음덩어리처럼 나오네요. 입안이 시려웠어요. 참치먹으녀와서 얼음만 먹은 느낌./사장님도 진짜 친절하시고 음식포장도 넉넉하게 깔끔하세 잘 해주세요!! 사진은 못찍었지만 ㅜㅜ 그리고 표고버섯장? 장아찌? 모르겠지만 진짜 참치랑 잘어울리고 별미에요👍👍👍,/4.43/21개 평점 26명 참여,15
이모네족발,한식,족발/보쌈전문,한식 음식점업,괴안동,37.4769512551669,126.802455203617,한식족발/보쌈전문한식 음식점업,괴안동%20이모네족발,https://m.place.naver.com/restaurant/20655657,경기 부천시 소사로159번길 17,4.37,/ㅇㅏ..진짜 너무 아쉬워요ㅠㅠ 이모네족발은 맛있을땐 엄청 맛있고 어쩔땐 맛이 쏘쏘예요.대체 왜그럴까요...? 아는 언니네 집에서 첨 먹어봤는데 진짜 너~~~무 맛있어서 고기에서 넘 꼬소해서 우유맛이 날지경.. 이여서 상호 알아와서 종종 먹는 곳인데 ㅠㅠ 집근처 사는 친구가 맛있을땐 엄청 맛있고 맛 없을땐 진짜 별로라고하던 말이 생각나며 이제 무릎을 탁!쳤어여. 진짜 극과극이 너무 심한걸 이제 진심 느끼네요. 아쉽습니다. 쟁반국수 면 직접.../족발은 꼭 여기서 포장해다 먹어요! 막국수가 정말 맛있고 족발도 깔끔하게 맛있어요ㅎㅎ/맛나요/친절해요/막국수 맛있어요/굿/굿/사장님 친절하시고 족발도 맛있어요./맛있어요/00,/4.37/80개 평점 73명 참여,34
